# 
# Header Description:
# 
# Version: v3.0.5.6 Platform: 10 Manufacturer: HUAWEI Model: LYA-AL00
# 
# Raw,utcTimeMillis,TimeNanos,LeapSecond,TimeUncertaintyNanos,FullBiasNanos,BiasNanos,BiasUncertaintyNanos,DriftNanosPerSecond,DriftUncertaintyNanosPerSecond,HardwareClockDiscontinuityCount,Svid,TimeOffsetNanos,State,ReceivedSvTimeNanos,ReceivedSvTimeUncertaintyNanos,Cn0DbHz,PseudorangeRateMetersPerSecond,PseudorangeRateUncertaintyMetersPerSecond,AccumulatedDeltaRangeState,AccumulatedDeltaRangeMeters,AccumulatedDeltaRangeUncertaintyMeters,CarrierFrequencyHz,CarrierCycles,CarrierPhase,CarrierPhaseUncertainty,MultipathIndicator,SnrInDb,ConstellationType,AgcDb,BasebandCn0DbHz,FullInterSignalBiasNanos,FullInterSignalBiasUncertaintyNanos,SatelliteInterSignalBiasNanos,SatelliteInterSignalBiasUncertaintyNanos,CodeType,ChipsetElapsedRealtimeNanos
# 
# UncalAccel,utcTimeMillis,elapsedRealtimeNanos,UncalAccelXMps2,UncalAccelYMps2,UncalAccelZMps2,BiasXMps2,BiasYMps2,BiasZMps2
# 
# Accel,utcTimeMillis,elapsedRealtimeNanos,AccelXMps2,AccelYMps2,AccelZMps2
# 
# UncalGyro,utcTimeMillis,elapsedRealtimeNanos,UncalGyroXRadPerSec,UncalGyroYRadPerSec,UncalGyroZRadPerSec,DriftXRadPerSec,DriftYRadPerSec,DriftZRadPerSec
# 
# Gyro,utcTimeMillis,elapsedRealtimeNanos,GyroXRadPerSec,GyroYRadPerSec,GyroZRadPerSec
# 
# UncalMag,utcTimeMillis,elapsedRealtimeNanos,UncalMagXMicroT,UncalMagYMicroT,UncalMagZMicroT,BiasXMicroT,BiasYMicroT,BiasZMicroT
# 
# Mag,utcTimeMillis,elapsedRealtimeNanos,MagXMicroT,MagYMicroT,MagZMicroT
# 
# OrientationDeg,utcTimeMillis,elapsedRealtimeNanos,yawDeg,rollDeg,pitchDeg
# 
# Fix,Provider,LatitudeDegrees,LongitudeDegrees,AltitudeMeters,SpeedMps,AccuracyMeters,BearingDegrees,UnixTimeMillis,SpeedAccuracyMps,BearingAccuracyDegrees,elapsedRealtimeNanos,VerticalAccuracyMeters
# 
# Nav,Svid,Type,Status,MessageId,Sub-messageId,Data(Bytes)
# 
# Status,UnixTimeMillis,SignalCount,SignalIndex,ConstellationType,Svid,CarrierFrequencyHz,Cn0DbHz,AzimuthDegrees,ElevationDegrees,UsedInFix,HasAlmanacData,HasEphemerisData,BasebandCn0DbHz
# 
Fix,FLP,22.3042823000,114.1805890000,22.80000114440918,0.11896985,9.117,96.09918,1731398673213,0.13198352,45.0,777317566925744,1.0889328
Fix,NLP,22.3042491000,114.1805991000,22.80000114440918,,91.026,,1731398673899,,,777318252376265,17.1798
Status,0,41,0,1,3,1575420030,0.00,251.6407,20.437798,0,0,1,
Status,0,41,1,1,4,1575420030,0.00,317.3794,39.667286,0,0,1,
Status,0,41,2,1,8,1575420030,0.00,198.55489,28.771015,0,0,1,
Status,0,41,3,1,9,1575420030,0.00,321.6371,10.600743,0,0,1,
Status,0,41,4,1,16,1575420030,0.00,336.80615,62.012817,0,0,1,
Status,0,41,5,1,26,1575420030,0.00,26.819588,42.377018,0,0,1,
Status,0,41,6,1,27,1575420030,0.00,171.79451,57.48329,0,0,1,
Status,0,41,7,1,28,1575420030,0.00,88.13454,27.115404,0,0,1,
Status,0,41,8,1,31,1575420030,0.00,56.65,46.763817,0,0,1,
Status,0,41,9,1,32,1575420030,0.00,149.27489,9.099546,0,0,1,
Status,0,41,10,3,3,1604531200,0.00,200.45317,48.192314,0,1,1,
Status,0,41,11,3,4,1605093760,0.00,293.10922,53.810852,0,0,1,
Status,0,41,12,3,5,1602281220,0.00,329.54684,12.93358,0,0,1,
Status,0,41,13,3,13,1600593790,0.00,45.0395,15.106377,0,0,1,
Status,0,41,14,3,14,1597781250,0.00,343.07944,38.84285,0,0,1,
Status,0,41,15,3,15,1601718780,0.00,286.14322,20.009584,0,0,1,
Status,0,41,16,3,17,1603968770,0.00,165.52737,6.9180255,0,0,1,
Status,0,41,17,3,23,1603406210,0.00,56.236984,16.176392,0,0,1,
Status,0,41,18,3,24,1602843780,0.00,116.07443,27.111744,0,1,1,
Status,0,41,19,5,10,1561097980,0.00,208.48662,51.215477,0,1,1,
Status,0,41,20,5,13,1561097980,0.00,209.6614,12.530496,0,1,0,
Status,0,41,21,5,19,1561097980,0.00,239.09491,49.002876,0,1,1,
Status,0,41,22,5,20,1561097980,0.00,181.94765,25.524107,0,1,1,
Status,0,41,23,6,4,1575420030,0.00,204.44608,82.870605,0,1,1,
Status,0,41,24,6,9,1575420030,0.00,319.01007,39.776085,0,1,1,
Status,0,41,25,6,19,1575420030,0.00,147.03284,25.523722,0,1,0,
Status,0,41,26,6,24,1575420030,0.00,249.56895,20.882938,0,1,1,
Status,0,41,27,6,31,1575420030,0.00,299.43893,60.23839,0,1,1,
Status,0,41,28,6,33,1575420030,0.00,133.32452,7.909551,0,1,1,
Status,0,41,29,4,194,1575420030,0.00,50.046265,62.375336,0,1,1,
Status,0,41,30,4,195,1575420030,0.00,135.66064,25.378387,0,1,1,
Status,0,41,31,5,2,1561097980,0.00,238.4238,46.47945,0,1,0,
Status,0,41,32,5,4,1561097980,0.00,112.25293,31.636444,0,1,0,
Status,0,41,33,5,6,1561097980,0.00,5.1061187,57.96389,0,0,1,
Status,0,41,34,5,7,1561097980,0.00,200.70703,62.884884,0,0,1,
Status,0,41,35,5,8,1561097980,0.00,199.01762,8.548693,0,0,1,
Status,0,41,36,5,9,1561097980,0.00,345.01437,51.13652,0,0,1,
Status,0,41,37,5,22,1561097980,0.00,303.49802,26.114586,0,0,1,
Status,0,41,38,5,27,1561097980,0.00,80.61068,31.276634,0,0,1,
Status,0,41,39,5,29,1561097980,0.00,190.72762,7.3078346,0,0,1,
Status,0,41,40,5,30,1561097980,0.00,142.82121,37.92853,0,0,1,
Raw,1731398672800,20000000000,18,0.0,-1415433870800561664,0.0,333.564095198152,-972.7741044835306,0.0,6,3,0.0,0,0,10,0.0,0.0,0.1,16,0.0,0.1,1575420030,,,,0,,1,0.0,,,,,,C,777318348871578
Raw,1731398672800,20000000000,18,0.0,-1415433870800561664,0.0,333.564095198152,-972.7741044835306,0.0,6,4,0.0,0,0,10,0.0,0.0,0.1,16,0.0,0.1,1575420030,,,,0,,1,0.0,,,,,,C,777318348871578
Raw,1731398672800,20000000000,18,0.0,-1415433870800561664,0.0,333.564095198152,-972.7741044835306,0.0,6,8,0.0,0,0,10,0.0,0.0,0.1,16,0.0,0.1,1575420030,,,,0,,1,0.0,,,,,,C,777318348871578
Raw,1731398672800,20000000000,18,0.0,-1415433870800561664,0.0,333.564095198152,-972.7741044835306,0.0,6,9,0.0,0,0,10,0.0,0.0,0.1,16,0.0,0.1,1575420030,,,,0,,1,0.0,,,,,,C,777318348871578
Raw,1731398672800,20000000000,18,0.0,-1415433870800561664,0.0,333.564095198152,-972.7741044835306,0.0,6,16,0.0,0,0,10,0.0,0.0,0.1,16,0.0,0.1,1575420030,,,,0,,1,0.0,,,,,,C,777318348871578
Raw,1731398672800,20000000000,18,0.0,-1415433870800561664,0.0,333.564095198152,-972.7741044835306,0.0,6,26,0.0,0,0,10,0.0,0.0,0.1,16,0.0,0.1,1575420030,,,,0,,1,0.0,,,,,,C,777318348871578
Raw,1731398672800,20000000000,18,0.0,-1415433870800561664,0.0,333.564095198152,-972.7741044835306,0.0,6,27,0.0,0,0,10,0.0,0.0,0.1,16,0.0,0.1,1575420030,,,,0,,1,0.0,,,,,,C,777318348871578
Raw,1731398672800,20000000000,18,0.0,-1415433870800561664,0.0,333.564095198152,-972.7741044835306,0.0,6,28,0.0,0,0,10,0.0,0.0,0.1,16,0.0,0.1,1575420030,,,,0,,1,0.0,,,,,,C,777318348871578
Raw,1731398672800,20000000000,18,0.0,-1415433870800561664,0.0,333.564095198152,-972.7741044835306,0.0,6,31,0.0,0,0,10,0.0,0.0,0.1,16,0.0,0.1,1575420030,,,,0,,1,0.0,,,,,,C,777318348871578
Raw,1731398672800,20000000000,18,0.0,-1415433870800561664,0.0,333.564095198152,-972.7741044835306,0.0,6,32,0.0,0,0,10,0.0,0.0,0.1,16,0.0,0.1,1575420030,,,,0,,1,0.0,,,,,,C,777318348871578
Raw,1731398672800,20000000000,18,0.0,-1415433870800561664,0.0,333.564095198152,-972.7741044835306,0.0,6,3,0.0,0,0,10,0.0,0.0,0.1,16,0.0,0.1,1604531200,,,,0,,3,0.0,,,,,,C,777318348871578
Raw,1731398672800,20000000000,18,0.0,-1415433870800561664,0.0,333.564095198152,-972.7741044835306,0.0,6,4,0.0,0,0,10,0.0,0.0,0.1,16,0.0,0.1,1605093760,,,,0,,3,0.0,,,,,,C,777318348871578
Raw,1731398672800,20000000000,18,0.0,-1415433870800561664,0.0,333.564095198152,-972.7741044835306,0.0,6,5,0.0,0,0,10,0.0,0.0,0.1,16,0.0,0.1,1602281220,,,,0,,3,0.0,,,,,,C,777318348871578
Raw,1731398672800,20000000000,18,0.0,-1415433870800561664,0.0,333.564095198152,-972.7741044835306,0.0,6,13,0.0,0,0,10,0.0,0.0,0.1,16,0.0,0.1,1600593790,,,,0,,3,0.0,,,,,,C,777318348871578
Raw,1731398672800,20000000000,18,0.0,-1415433870800561664,0.0,333.564095198152,-972.7741044835306,0.0,6,14,0.0,0,0,10,0.0,0.0,0.1,16,0.0,0.1,1597781250,,,,0,,3,0.0,,,,,,C,777318348871578
Raw,1731398672800,20000000000,18,0.0,-1415433870800561664,0.0,333.564095198152,-972.7741044835306,0.0,6,15,0.0,0,0,10,0.0,0.0,0.1,16,0.0,0.1,1601718780,,,,0,,3,0.0,,,,,,C,777318348871578
Raw,1731398672800,20000000000,18,0.0,-1415433870800561664,0.0,333.564095198152,-972.7741044835306,0.0,6,17,0.0,0,0,10,0.0,0.0,0.1,16,0.0,0.1,1603968770,,,,0,,3,0.0,,,,,,C,777318348871578
Raw,1731398672800,20000000000,18,0.0,-1415433870800561664,0.0,333.564095198152,-972.7741044835306,0.0,6,23,0.0,0,0,10,0.0,0.0,0.1,16,0.0,0.1,1603406210,,,,0,,3,0.0,,,,,,C,777318348871578
Raw,1731398672800,20000000000,18,0.0,-1415433870800561664,0.0,333.564095198152,-972.7741044835306,0.0,6,24,0.0,0,0,10,0.0,0.0,0.1,16,0.0,0.1,1602843780,,,,0,,3,0.0,,,,,,C,777318348871578
Raw,1731398672800,20000000000,18,0.0,-1415433870800561664,0.0,333.564095198152,-972.7741044835306,0.0,6,10,0.0,0,0,10,0.0,0.0,0.1,16,0.0,0.1,1561097980,,,,0,,5,0.0,,,,,,I,777318348871578
Raw,1731398672800,20000000000,18,0.0,-1415433870800561664,0.0,333.564095198152,-972.7741044835306,0.0,6,13,0.0,0,0,10,0.0,0.0,0.1,16,0.0,0.1,1561097980,,,,0,,5,0.0,,,,,,I,777318348871578
Raw,1731398672800,20000000000,18,0.0,-1415433870800561664,0.0,333.564095198152,-972.7741044835306,0.0,6,19,0.0,0,0,10,0.0,0.0,0.1,16,0.0,0.1,1561097980,,,,0,,5,0.0,,,,,,I,777318348871578
Raw,1731398672800,20000000000,18,0.0,-1415433870800561664,0.0,333.564095198152,-972.7741044835306,0.0,6,20,0.0,0,0,10,0.0,0.0,0.1,16,0.0,0.1,1561097980,,,,0,,5,0.0,,,,,,I,777318348871578
Raw,1731398672800,20000000000,18,0.0,-1415433870800561664,0.0,333.564095198152,-972.7741044835306,0.0,6,4,0.0,0,0,10,0.0,0.0,0.1,16,0.0,0.1,1575420030,,,,0,,6,0.0,,,,,,A,777318348871578
Raw,1731398672800,20000000000,18,0.0,-1415433870800561664,0.0,333.564095198152,-972.7741044835306,0.0,6,9,0.0,0,0,10,0.0,0.0,0.1,16,0.0,0.1,1575420030,,,,0,,6,0.0,,,,,,A,777318348871578
Raw,1731398672800,20000000000,18,0.0,-1415433870800561664,0.0,333.564095198152,-972.7741044835306,0.0,6,19,0.0,0,0,10,0.0,0.0,0.1,16,0.0,0.1,1575420030,,,,0,,6,0.0,,,,,,A,777318348871578
Raw,1731398672800,20000000000,18,0.0,-1415433870800561664,0.0,333.564095198152,-972.7741044835306,0.0,6,24,0.0,0,0,10,0.0,0.0,0.1,16,0.0,0.1,1575420030,,,,0,,6,0.0,,,,,,A,777318348871578
Raw,1731398672800,20000000000,18,0.0,-1415433870800561664,0.0,333.564095198152,-972.7741044835306,0.0,6,31,0.0,0,0,10,0.0,0.0,0.1,16,0.0,0.1,1575420030,,,,0,,6,0.0,,,,,,A,777318348871578
Raw,1731398672800,20000000000,18,0.0,-1415433870800561664,0.0,333.564095198152,-972.7741044835306,0.0,6,33,0.0,0,0,10,0.0,0.0,0.1,16,0.0,0.1,1575420030,,,,0,,6,0.0,,,,,,A,777318348871578
Raw,1731398672800,20000000000,18,0.0,-1415433870800561664,0.0,333.564095198152,-972.7741044835306,0.0,6,194,0.0,0,0,10,0.0,0.0,0.1,16,0.0,0.1,1575420030,,,,0,,4,0.0,,,,,,C,777318348871578
Raw,1731398672800,20000000000,18,0.0,-1415433870800561664,0.0,333.564095198152,-972.7741044835306,0.0,6,195,0.0,0,0,10,0.0,0.0,0.1,16,0.0,0.1,1575420030,,,,0,,4,0.0,,,,,,C,777318348871578
Raw,1731398672800,20000000000,18,0.0,-1415433870800561664,0.0,333.564095198152,-972.7741044835306,0.0,6,2,0.0,0,0,10,0.0,0.0,0.1,16,0.0,0.1,1561097980,,,,0,,5,0.0,,,,,,I,777318348871578
Raw,1731398672800,20000000000,18,0.0,-1415433870800561664,0.0,333.564095198152,-972.7741044835306,0.0,6,4,0.0,0,0,10,0.0,0.0,0.1,16,0.0,0.1,1561097980,,,,0,,5,0.0,,,,,,I,777318348871578
Raw,1731398672800,20000000000,18,0.0,-1415433870800561664,0.0,333.564095198152,-972.7741044835306,0.0,6,6,0.0,0,0,10,0.0,0.0,0.1,16,0.0,0.1,1561097980,,,,0,,5,0.0,,,,,,I,777318348871578
Raw,1731398672800,20000000000,18,0.0,-1415433870800561664,0.0,333.564095198152,-972.7741044835306,0.0,6,7,0.0,0,0,10,0.0,0.0,0.1,16,0.0,0.1,1561097980,,,,0,,5,0.0,,,,,,I,777318348871578
Raw,1731398672800,20000000000,18,0.0,-1415433870800561664,0.0,333.564095198152,-972.7741044835306,0.0,6,8,0.0,0,0,10,0.0,0.0,0.1,16,0.0,0.1,1561097980,,,,0,,5,0.0,,,,,,I,777318348871578
Raw,1731398672800,20000000000,18,0.0,-1415433870800561664,0.0,333.564095198152,-972.7741044835306,0.0,6,9,0.0,0,0,10,0.0,0.0,0.1,16,0.0,0.1,1561097980,,,,0,,5,0.0,,,,,,I,777318348871578
Raw,1731398672800,20000000000,18,0.0,-1415433870800561664,0.0,333.564095198152,-972.7741044835306,0.0,6,22,0.0,0,0,10,0.0,0.0,0.1,16,0.0,0.1,1561097980,,,,0,,5,0.0,,,,,,I,777318348871578
Raw,1731398672800,20000000000,18,0.0,-1415433870800561664,0.0,333.564095198152,-972.7741044835306,0.0,6,27,0.0,0,0,10,0.0,0.0,0.1,16,0.0,0.1,1561097980,,,,0,,5,0.0,,,,,,I,777318348871578
Raw,1731398672800,20000000000,18,0.0,-1415433870800561664,0.0,333.564095198152,-972.7741044835306,0.0,6,29,0.0,0,0,10,0.0,0.0,0.1,16,0.0,0.1,1561097980,,,,0,,5,0.0,,,,,,I,777318348871578
Raw,1731398672800,20000000000,18,0.0,-1415433870800561664,0.0,333.564095198152,-972.7741044835306,0.0,6,30,0.0,0,0,10,0.0,0.0,0.1,16,0.0,0.1,1561097980,,,,0,,5,0.0,,,,,,I,777318348871578
Fix,FLP,22.3042833000,114.1805876000,22.80000114440918,0.116388485,9.086,98.787796,1731398674097,0.14061327,45.0,777318450648143,1.0506806
Fix,GPS,22.3043045000,114.1805650000,92.71203417424113,1.5481981,13.574,66.00943,1731398667351,,,777318791557515,1.0
Fix,FLP,22.3042910000,114.1805787000,22.80000114440918,0.084579825,7.023,,1731398674513,0.12178555,,777318866759077,1.0506806
Status,1731398667351,41,0,1,3,1575420030,0.00,251.6331,20.434605,0,0,1,
Status,1731398667351,41,1,1,4,1575420030,0.00,317.37524,39.674023,0,0,1,
Status,1731398667351,41,2,1,8,1575420030,0.00,198.55562,28.77853,0,0,1,
Status,1731398667351,41,3,1,9,1575420030,0.00,321.63568,10.606965,0,0,1,
Status,1731398667351,41,4,1,16,1575420030,0.00,336.82178,62.008854,0,0,1,
Status,1731398667351,41,5,1,26,1575420030,0.00,26.82614,42.371727,0,0,1,
Status,1731398667351,41,6,1,27,1575420030,0.00,171.79062,57.49177,0,0,1,
Status,1731398667351,41,7,1,28,1575420030,0.00,88.14259,27.112232,0,0,1,
Status,1731398667351,41,8,1,31,1575420030,0.00,56.66142,46.76258,0,0,1,
Status,1731398667351,41,9,1,32,1575420030,0.00,149.2764,9.092809,0,0,1,
Status,1731398667351,41,10,3,3,1604531200,0.00,200.44872,48.182747,0,1,1,
Status,1731398667351,41,11,3,4,1605093760,0.00,293.09293,53.813416,0,0,1,
Status,1731398667351,41,12,3,5,1602281220,0.00,329.54266,12.940181,0,0,1,
Status,1731398667351,41,13,3,13,1600593790,0.00,45.04709,15.102908,0,0,1,
Status,1731398667351,41,14,3,14,1597781250,0.00,343.0904,38.841568,0,0,1,
Status,1731398667351,41,15,3,15,1601718780,0.00,286.15228,20.01175,0,0,1,
Status,1731398667351,41,16,3,17,1603968770,0.00,165.52263,6.924274,0,0,1,
Status,1731398667351,41,17,3,23,1603406210,0.00,56.228207,16.175512,0,0,1,
Status,1731398667351,41,18,3,24,1602843780,0.00,116.06599,27.117037,0,1,1,
Status,1731398667351,41,19,5,10,1561097980,0.00,208.49129,51.21786,0,1,1,
Status,1731398667351,41,20,5,13,1561097980,0.00,209.65985,12.52741,0,1,0,
Status,1731398667351,41,21,5,19,1561097980,0.00,239.08507,48.99831,0,1,1,
Status,1731398667351,41,22,5,20,1561097980,0.00,181.94557,25.51752,0,1,1,
Status,1731398667351,41,23,6,4,1575420030,0.00,204.41978,82.86405,0,1,1,
Status,1731398667351,41,24,6,9,1575420030,0.00,319.00687,39.781403,0,1,1,
Status,1731398667351,41,25,6,19,1575420030,0.00,147.03586,25.518177,0,1,0,
Status,1731398667351,41,26,6,24,1575420030,0.00,249.57497,20.885975,0,1,1,
Status,1731398667351,41,27,6,31,1575420030,0.00,299.4523,60.237843,0,1,1,
Status,1731398667351,41,28,6,33,1575420030,0.00,133.3195,7.912749,0,1,1,
Status,1731398667351,41,29,4,194,1575420030,0.00,50.043747,62.374622,0,1,1,
Status,1731398667351,41,30,4,195,1575420030,0.00,135.65863,25.380613,0,1,1,
Status,1731398667351,41,31,5,2,1561097980,0.00,238.42346,46.4793,0,1,0,
Status,1731398667351,41,32,5,4,1561097980,0.00,112.25297,31.63638,0,1,0,
Status,1731398667351,41,33,5,6,1561097980,0.00,5.1089153,57.96588,0,0,1,
Status,1731398667351,41,34,5,7,1561097980,0.00,200.71294,62.887695,0,0,1,
Status,1731398667351,41,35,5,8,1561097980,0.00,199.01619,8.545871,0,0,1,
Status,1731398667351,41,36,5,9,1561097980,0.00,345.01648,51.138058,0,0,1,
Status,1731398667351,41,37,5,22,1561097980,0.00,303.49124,26.11742,0,0,1,
Status,1731398667351,41,38,5,27,1561097980,0.00,80.602356,31.27689,0,0,1,
Status,1731398667351,41,39,5,29,1561097980,0.00,190.72502,7.312972,0,0,1,
Status,1731398667351,41,40,5,30,1561097980,0.00,142.8152,37.934113,0,0,1,
Raw,1731398673800,21000000000,18,0.0,-1415433870800561664,0.0,333.564095198152,-972.7741044835306,0.0,6,3,0.0,0,0,10,0.0,0.0,0.1,16,0.0,0.1,1575420030,,,,0,,1,1.0,,,,,,C,777319348901786
Raw,1731398673800,21000000000,18,0.0,-1415433870800561664,0.0,333.564095198152,-972.7741044835306,0.0,6,4,0.0,0,0,10,0.0,0.0,0.1,16,0.0,0.1,1575420030,,,,0,,1,1.0,,,,,,C,777319348901786
Raw,1731398673800,21000000000,18,0.0,-1415433870800561664,0.0,333.564095198152,-972.7741044835306,0.0,6,8,0.0,0,0,10,0.0,0.0,0.1,16,0.0,0.1,1575420030,,,,0,,1,1.0,,,,,,C,777319348901786
Raw,1731398673800,21000000000,18,0.0,-1415433870800561664,0.0,333.564095198152,-972.7741044835306,0.0,6,9,0.0,0,0,10,0.0,0.0,0.1,16,0.0,0.1,1575420030,,,,0,,1,1.0,,,,,,C,777319348901786
Raw,1731398673800,21000000000,18,0.0,-1415433870800561664,0.0,333.564095198152,-972.7741044835306,0.0,6,16,0.0,0,0,10,0.0,0.0,0.1,16,0.0,0.1,1575420030,,,,0,,1,1.0,,,,,,C,777319348901786
Raw,1731398673800,21000000000,18,0.0,-1415433870800561664,0.0,333.564095198152,-972.7741044835306,0.0,6,26,0.0,0,0,10,0.0,0.0,0.1,16,0.0,0.1,1575420030,,,,0,,1,1.0,,,,,,C,777319348901786
Raw,1731398673800,21000000000,18,0.0,-1415433870800561664,0.0,333.564095198152,-972.7741044835306,0.0,6,27,0.0,0,0,10,0.0,0.0,0.1,16,0.0,0.1,1575420030,,,,0,,1,1.0,,,,,,C,777319348901786
Raw,1731398673800,21000000000,18,0.0,-1415433870800561664,0.0,333.564095198152,-972.7741044835306,0.0,6,28,0.0,0,0,10,0.0,0.0,0.1,16,0.0,0.1,1575420030,,,,0,,1,1.0,,,,,,C,777319348901786
Raw,1731398673800,21000000000,18,0.0,-1415433870800561664,0.0,333.564095198152,-972.7741044835306,0.0,6,31,0.0,0,0,10,0.0,0.0,0.1,16,0.0,0.1,1575420030,,,,0,,1,1.0,,,,,,C,777319348901786
Raw,1731398673800,21000000000,18,0.0,-1415433870800561664,0.0,333.564095198152,-972.7741044835306,0.0,6,32,0.0,0,0,10,0.0,0.0,0.1,16,0.0,0.1,1575420030,,,,0,,1,1.0,,,,,,C,777319348901786
Raw,1731398673800,21000000000,18,0.0,-1415433870800561664,0.0,333.564095198152,-972.7741044835306,0.0,6,3,0.0,0,0,10,0.0,0.0,0.1,16,0.0,0.1,1604531200,,,,0,,3,1.0,,,,,,C,777319348901786
Raw,1731398673800,21000000000,18,0.0,-1415433870800561664,0.0,333.564095198152,-972.7741044835306,0.0,6,4,0.0,0,0,10,0.0,0.0,0.1,16,0.0,0.1,1605093760,,,,0,,3,1.0,,,,,,C,777319348901786
Raw,1731398673800,21000000000,18,0.0,-1415433870800561664,0.0,333.564095198152,-972.7741044835306,0.0,6,5,0.0,0,0,10,0.0,0.0,0.1,16,0.0,0.1,1602281220,,,,0,,3,1.0,,,,,,C,777319348901786
Raw,1731398673800,21000000000,18,0.0,-1415433870800561664,0.0,333.564095198152,-972.7741044835306,0.0,6,13,0.0,0,0,10,0.0,0.0,0.1,16,0.0,0.1,1600593790,,,,0,,3,1.0,,,,,,C,777319348901786
Raw,1731398673800,21000000000,18,0.0,-1415433870800561664,0.0,333.564095198152,-972.7741044835306,0.0,6,14,0.0,0,0,10,0.0,0.0,0.1,16,0.0,0.1,1597781250,,,,0,,3,1.0,,,,,,C,777319348901786
Raw,1731398673800,21000000000,18,0.0,-1415433870800561664,0.0,333.564095198152,-972.7741044835306,0.0,6,15,0.0,0,0,10,0.0,0.0,0.1,16,0.0,0.1,1601718780,,,,0,,3,1.0,,,,,,C,777319348901786
Raw,1731398673800,21000000000,18,0.0,-1415433870800561664,0.0,333.564095198152,-972.7741044835306,0.0,6,17,0.0,0,0,10,0.0,0.0,0.1,16,0.0,0.1,1603968770,,,,0,,3,1.0,,,,,,C,777319348901786
Raw,1731398673800,21000000000,18,0.0,-1415433870800561664,0.0,333.564095198152,-972.7741044835306,0.0,6,23,0.0,0,0,10,0.0,0.0,0.1,16,0.0,0.1,1603406210,,,,0,,3,1.0,,,,,,C,777319348901786
Raw,1731398673800,21000000000,18,0.0,-1415433870800561664,0.0,333.564095198152,-972.7741044835306,0.0,6,24,0.0,0,0,10,0.0,0.0,0.1,16,0.0,0.1,1602843780,,,,0,,3,1.0,,,,,,C,777319348901786
Raw,1731398673800,21000000000,18,0.0,-1415433870800561664,0.0,333.564095198152,-972.7741044835306,0.0,6,10,0.0,0,0,10,0.0,0.0,0.1,16,0.0,0.1,1561097980,,,,0,,5,1.0,,,,,,I,777319348901786
Raw,1731398673800,21000000000,18,0.0,-1415433870800561664,0.0,333.564095198152,-972.7741044835306,0.0,6,13,0.0,0,0,10,0.0,0.0,0.1,16,0.0,0.1,1561097980,,,,0,,5,1.0,,,,,,I,777319348901786
Raw,1731398673800,21000000000,18,0.0,-1415433870800561664,0.0,333.564095198152,-972.7741044835306,0.0,6,19,0.0,0,0,10,0.0,0.0,0.1,16,0.0,0.1,1561097980,,,,0,,5,1.0,,,,,,I,777319348901786
Raw,1731398673800,21000000000,18,0.0,-1415433870800561664,0.0,333.564095198152,-972.7741044835306,0.0,6,20,0.0,0,0,10,0.0,0.0,0.1,16,0.0,0.1,1561097980,,,,0,,5,1.0,,,,,,I,777319348901786
Raw,1731398673800,21000000000,18,0.0,-1415433870800561664,0.0,333.564095198152,-972.7741044835306,0.0,6,4,0.0,0,0,10,0.0,0.0,0.1,16,0.0,0.1,1575420030,,,,0,,6,1.0,,,,,,A,777319348901786
Raw,1731398673800,21000000000,18,0.0,-1415433870800561664,0.0,333.564095198152,-972.7741044835306,0.0,6,9,0.0,0,0,10,0.0,0.0,0.1,16,0.0,0.1,1575420030,,,,0,,6,1.0,,,,,,A,777319348901786
Raw,1731398673800,21000000000,18,0.0,-1415433870800561664,0.0,333.564095198152,-972.7741044835306,0.0,6,19,0.0,0,0,10,0.0,0.0,0.1,16,0.0,0.1,1575420030,,,,0,,6,1.0,,,,,,A,777319348901786
Raw,1731398673800,21000000000,18,0.0,-1415433870800561664,0.0,333.564095198152,-972.7741044835306,0.0,6,24,0.0,0,0,10,0.0,0.0,0.1,16,0.0,0.1,1575420030,,,,0,,6,1.0,,,,,,A,777319348901786
Raw,1731398673800,21000000000,18,0.0,-1415433870800561664,0.0,333.564095198152,-972.7741044835306,0.0,6,31,0.0,0,0,10,0.0,0.0,0.1,16,0.0,0.1,1575420030,,,,0,,6,1.0,,,,,,A,777319348901786
Raw,1731398673800,21000000000,18,0.0,-1415433870800561664,0.0,333.564095198152,-972.7741044835306,0.0,6,33,0.0,0,0,10,0.0,0.0,0.1,16,0.0,0.1,1575420030,,,,0,,6,1.0,,,,,,A,777319348901786
Raw,1731398673800,21000000000,18,0.0,-1415433870800561664,0.0,333.564095198152,-972.7741044835306,0.0,6,194,0.0,0,0,10,0.0,0.0,0.1,16,0.0,0.1,1575420030,,,,0,,4,1.0,,,,,,C,777319348901786
Raw,1731398673800,21000000000,18,0.0,-1415433870800561664,0.0,333.564095198152,-972.7741044835306,0.0,6,195,0.0,0,0,10,0.0,0.0,0.1,16,0.0,0.1,1575420030,,,,0,,4,1.0,,,,,,C,777319348901786
Raw,1731398673800,21000000000,18,0.0,-1415433870800561664,0.0,333.564095198152,-972.7741044835306,0.0,6,2,0.0,0,0,10,0.0,0.0,0.1,16,0.0,0.1,1561097980,,,,0,,5,1.0,,,,,,I,777319348901786
Raw,1731398673800,21000000000,18,0.0,-1415433870800561664,0.0,333.564095198152,-972.7741044835306,0.0,6,4,0.0,0,0,10,0.0,0.0,0.1,16,0.0,0.1,1561097980,,,,0,,5,1.0,,,,,,I,777319348901786
Raw,1731398673800,21000000000,18,0.0,-1415433870800561664,0.0,333.564095198152,-972.7741044835306,0.0,6,6,0.0,0,0,10,0.0,0.0,0.1,16,0.0,0.1,1561097980,,,,0,,5,1.0,,,,,,I,777319348901786
Raw,1731398673800,21000000000,18,0.0,-1415433870800561664,0.0,333.564095198152,-972.7741044835306,0.0,6,7,0.0,0,0,10,0.0,0.0,0.1,16,0.0,0.1,1561097980,,,,0,,5,1.0,,,,,,I,777319348901786
Raw,1731398673800,21000000000,18,0.0,-1415433870800561664,0.0,333.564095198152,-972.7741044835306,0.0,6,8,0.0,0,0,10,0.0,0.0,0.1,16,0.0,0.1,1561097980,,,,0,,5,1.0,,,,,,I,777319348901786
Raw,1731398673800,21000000000,18,0.0,-1415433870800561664,0.0,333.564095198152,-972.7741044835306,0.0,6,9,0.0,0,0,10,0.0,0.0,0.1,16,0.0,0.1,1561097980,,,,0,,5,1.0,,,,,,I,777319348901786
Raw,1731398673800,21000000000,18,0.0,-1415433870800561664,0.0,333.564095198152,-972.7741044835306,0.0,6,22,0.0,0,0,10,0.0,0.0,0.1,16,0.0,0.1,1561097980,,,,0,,5,1.0,,,,,,I,777319348901786
Raw,1731398673800,21000000000,18,0.0,-1415433870800561664,0.0,333.564095198152,-972.7741044835306,0.0,6,27,0.0,0,0,10,0.0,0.0,0.1,16,0.0,0.1,1561097980,,,,0,,5,1.0,,,,,,I,777319348901786
Raw,1731398673800,21000000000,18,0.0,-1415433870800561664,0.0,333.564095198152,-972.7741044835306,0.0,6,29,0.0,0,0,10,0.0,0.0,0.1,16,0.0,0.1,1561097980,,,,0,,5,1.0,,,,,,I,777319348901786
Raw,1731398673800,21000000000,18,0.0,-1415433870800561664,0.0,333.564095198152,-972.7741044835306,0.0,6,30,0.0,0,0,10,0.0,0.0,0.1,16,0.0,0.1,1561097980,,,,0,,5,1.0,,,,,,I,777319348901786
Status,1731398667351,41,0,1,3,1575420030,0.00,251.62556,20.431396,0,0,1,
Status,1731398667351,41,1,1,4,1575420030,0.00,317.37112,39.680687,0,0,1,
Status,1731398667351,41,2,1,8,1575420030,0.00,198.5564,28.786093,0,0,1,
Status,1731398667351,41,3,1,9,1575420030,0.00,321.63428,10.613122,0,0,1,
Status,1731398667351,41,4,1,16,1575420030,0.00,336.83737,62.004807,0,0,1,
Status,1731398667351,41,5,1,26,1575420030,0.00,26.832634,42.36639,0,0,1,
Status,1731398667351,41,6,1,27,1575420030,0.00,171.78677,57.500324,0,0,1,
Status,1731398667351,41,7,1,28,1575420030,0.00,88.15061,27.10909,0,0,1,
Status,1731398667351,41,8,1,31,1575420030,0.00,56.672752,46.76134,0,0,1,
Status,1731398667351,41,9,1,32,1575420030,0.00,149.27792,9.086138,0,0,1,
Status,1731398667351,41,10,3,3,1604531200,0.00,200.44435,48.17323,0,1,1,
Status,1731398667351,41,11,3,4,1605093760,0.00,293.0767,53.815918,0,0,1,
Status,1731398667351,41,12,3,5,1602281220,0.00,329.5385,12.946713,0,0,1,
Status,1731398667351,41,13,3,13,1600593790,0.00,45.054657,15.099422,0,0,1,
Status,1731398667351,41,14,3,14,1597781250,0.00,343.10138,38.840218,0,0,1,
Status,1731398667351,41,15,3,15,1601718780,0.00,286.16135,20.013865,0,0,1,
Status,1731398667351,41,16,3,17,1603968770,0.00,165.5179,6.9305863,0,0,1,
Status,1731398667351,41,17,3,23,1603406210,0.00,56.219402,16.174625,0,0,1,
Status,1731398667351,41,18,3,24,1602843780,0.00,116.057526,27.122389,0,1,1,
Status,1731398667351,41,19,5,10,1561097980,0.00,208.49605,51.220287,0,1,1,
Status,1731398667351,41,20,5,13,1561097980,0.00,209.65834,12.524357,0,1,0,
Status,1731398667351,41,21,5,19,1561097980,0.00,239.07532,48.99374,0,1,1,
Status,1731398667351,41,22,5,20,1561097980,0.00,181.94354,25.510994,0,1,1,
Status,1731398667351,41,23,6,4,1575420030,0.00,204.39407,82.857544,0,1,1,
Status,1731398667351,41,24,6,9,1575420030,0.00,319.00366,39.786644,0,1,1,
Status,1731398667351,41,25,6,19,1575420030,0.00,147.03891,25.512705,0,1,0,
Status,1731398667351,41,26,6,24,1575420030,0.00,249.58104,20.889,0,1,1,
Status,1731398667351,41,27,6,31,1575420030,0.00,299.46573,60.23723,0,1,1,
Status,1731398667351,41,28,6,33,1575420030,0.00,133.3145,7.9160094,0,1,1,
Status,1731398667351,41,29,4,194,1575420030,0.00,50.0411,62.373898,0,1,1,
Status,1731398667351,41,30,4,195,1575420030,0.00,135.65662,25.382906,0,1,1,
Status,1731398667351,41,31,5,2,1561097980,0.00,238.42322,46.479156,0,1,0,
Status,1731398667351,41,32,5,4,1561097980,0.00,112.25299,31.636368,0,1,0,
Status,1731398667351,41,33,5,6,1561097980,0.00,5.1116548,57.967808,0,0,1,
Status,1731398667351,41,34,5,7,1561097980,0.00,200.71896,62.890553,0,0,1,
Status,1731398667351,41,35,5,8,1561097980,0.00,199.01479,8.543093,0,0,1,
Status,1731398667351,41,36,5,9,1561097980,0.00,345.01855,51.139526,0,0,1,
Status,1731398667351,41,37,5,22,1561097980,0.00,303.4845,26.120192,0,0,1,
Status,1731398667351,41,38,5,27,1561097980,0.00,80.594,31.277168,0,0,1,
Status,1731398667351,41,39,5,29,1561097980,0.00,190.72244,7.3181596,0,0,1,
Status,1731398667351,41,40,5,30,1561097980,0.00,142.80919,37.939766,0,0,1,
Raw,1731398674800,22000000000,18,0.0,-1415433870800561664,0.0,333.564095198152,-972.7741044835306,0.0,6,3,0.0,0,0,10,0.0,0.0,0.1,16,0.0,0.1,1575420030,,,,0,,1,-1.0,,,,,,C,777320349807515
Raw,1731398674800,22000000000,18,0.0,-1415433870800561664,0.0,333.564095198152,-972.7741044835306,0.0,6,4,0.0,0,0,10,0.0,0.0,0.1,16,0.0,0.1,1575420030,,,,0,,1,-1.0,,,,,,C,777320349807515
Raw,1731398674800,22000000000,18,0.0,-1415433870800561664,0.0,333.564095198152,-972.7741044835306,0.0,6,8,0.0,0,0,10,0.0,0.0,0.1,16,0.0,0.1,1575420030,,,,0,,1,-1.0,,,,,,C,777320349807515
Raw,1731398674800,22000000000,18,0.0,-1415433870800561664,0.0,333.564095198152,-972.7741044835306,0.0,6,9,0.0,0,0,10,0.0,0.0,0.1,16,0.0,0.1,1575420030,,,,0,,1,-1.0,,,,,,C,777320349807515
Raw,1731398674800,22000000000,18,0.0,-1415433870800561664,0.0,333.564095198152,-972.7741044835306,0.0,6,16,0.0,0,0,10,0.0,0.0,0.1,16,0.0,0.1,1575420030,,,,0,,1,-1.0,,,,,,C,777320349807515
Raw,1731398674800,22000000000,18,0.0,-1415433870800561664,0.0,333.564095198152,-972.7741044835306,0.0,6,26,0.0,0,0,10,0.0,0.0,0.1,16,0.0,0.1,1575420030,,,,0,,1,-1.0,,,,,,C,777320349807515
Raw,1731398674800,22000000000,18,0.0,-1415433870800561664,0.0,333.564095198152,-972.7741044835306,0.0,6,27,0.0,0,0,10,0.0,0.0,0.1,16,0.0,0.1,1575420030,,,,0,,1,-1.0,,,,,,C,777320349807515
Raw,1731398674800,22000000000,18,0.0,-1415433870800561664,0.0,333.564095198152,-972.7741044835306,0.0,6,28,0.0,0,0,10,0.0,0.0,0.1,16,0.0,0.1,1575420030,,,,0,,1,-1.0,,,,,,C,777320349807515
Raw,1731398674800,22000000000,18,0.0,-1415433870800561664,0.0,333.564095198152,-972.7741044835306,0.0,6,31,0.0,0,0,10,0.0,0.0,0.1,16,0.0,0.1,1575420030,,,,0,,1,-1.0,,,,,,C,777320349807515
Raw,1731398674800,22000000000,18,0.0,-1415433870800561664,0.0,333.564095198152,-972.7741044835306,0.0,6,32,0.0,0,0,10,0.0,0.0,0.1,16,0.0,0.1,1575420030,,,,0,,1,-1.0,,,,,,C,777320349807515
Raw,1731398674800,22000000000,18,0.0,-1415433870800561664,0.0,333.564095198152,-972.7741044835306,0.0,6,3,0.0,0,0,10,0.0,0.0,0.1,16,0.0,0.1,1604531200,,,,0,,3,-1.0,,,,,,C,777320349807515
Raw,1731398674800,22000000000,18,0.0,-1415433870800561664,0.0,333.564095198152,-972.7741044835306,0.0,6,4,0.0,0,0,10,0.0,0.0,0.1,16,0.0,0.1,1605093760,,,,0,,3,-1.0,,,,,,C,777320349807515
Raw,1731398674800,22000000000,18,0.0,-1415433870800561664,0.0,333.564095198152,-972.7741044835306,0.0,6,5,0.0,0,0,10,0.0,0.0,0.1,16,0.0,0.1,1602281220,,,,0,,3,-1.0,,,,,,C,777320349807515
Raw,1731398674800,22000000000,18,0.0,-1415433870800561664,0.0,333.564095198152,-972.7741044835306,0.0,6,13,0.0,0,0,10,0.0,0.0,0.1,16,0.0,0.1,1600593790,,,,0,,3,-1.0,,,,,,C,777320349807515
Raw,1731398674800,22000000000,18,0.0,-1415433870800561664,0.0,333.564095198152,-972.7741044835306,0.0,6,14,0.0,0,0,10,0.0,0.0,0.1,16,0.0,0.1,1597781250,,,,0,,3,-1.0,,,,,,C,777320349807515
Raw,1731398674800,22000000000,18,0.0,-1415433870800561664,0.0,333.564095198152,-972.7741044835306,0.0,6,15,0.0,0,0,10,0.0,0.0,0.1,16,0.0,0.1,1601718780,,,,0,,3,-1.0,,,,,,C,777320349807515
Raw,1731398674800,22000000000,18,0.0,-1415433870800561664,0.0,333.564095198152,-972.7741044835306,0.0,6,17,0.0,0,0,10,0.0,0.0,0.1,16,0.0,0.1,1603968770,,,,0,,3,-1.0,,,,,,C,777320349807515
Raw,1731398674800,22000000000,18,0.0,-1415433870800561664,0.0,333.564095198152,-972.7741044835306,0.0,6,23,0.0,0,0,10,0.0,0.0,0.1,16,0.0,0.1,1603406210,,,,0,,3,-1.0,,,,,,C,777320349807515
Raw,1731398674800,22000000000,18,0.0,-1415433870800561664,0.0,333.564095198152,-972.7741044835306,0.0,6,24,0.0,0,0,10,0.0,0.0,0.1,16,0.0,0.1,1602843780,,,,0,,3,-1.0,,,,,,C,777320349807515
Raw,1731398674800,22000000000,18,0.0,-1415433870800561664,0.0,333.564095198152,-972.7741044835306,0.0,6,10,0.0,0,0,10,0.0,0.0,0.1,16,0.0,0.1,1561097980,,,,0,,5,-1.0,,,,,,I,777320349807515
Raw,1731398674800,22000000000,18,0.0,-1415433870800561664,0.0,333.564095198152,-972.7741044835306,0.0,6,13,0.0,0,0,10,0.0,0.0,0.1,16,0.0,0.1,1561097980,,,,0,,5,-1.0,,,,,,I,777320349807515
Raw,1731398674800,22000000000,18,0.0,-1415433870800561664,0.0,333.564095198152,-972.7741044835306,0.0,6,19,0.0,0,0,10,0.0,0.0,0.1,16,0.0,0.1,1561097980,,,,0,,5,-1.0,,,,,,I,777320349807515
Raw,1731398674800,22000000000,18,0.0,-1415433870800561664,0.0,333.564095198152,-972.7741044835306,0.0,6,20,0.0,0,0,10,0.0,0.0,0.1,16,0.0,0.1,1561097980,,,,0,,5,-1.0,,,,,,I,777320349807515
Raw,1731398674800,22000000000,18,0.0,-1415433870800561664,0.0,333.564095198152,-972.7741044835306,0.0,6,4,0.0,0,0,10,0.0,0.0,0.1,16,0.0,0.1,1575420030,,,,0,,6,-1.0,,,,,,A,777320349807515
Raw,1731398674800,22000000000,18,0.0,-1415433870800561664,0.0,333.564095198152,-972.7741044835306,0.0,6,9,0.0,0,0,10,0.0,0.0,0.1,16,0.0,0.1,1575420030,,,,0,,6,-1.0,,,,,,A,777320349807515
Raw,1731398674800,22000000000,18,0.0,-1415433870800561664,0.0,333.564095198152,-972.7741044835306,0.0,6,19,0.0,0,0,10,0.0,0.0,0.1,16,0.0,0.1,1575420030,,,,0,,6,-1.0,,,,,,A,777320349807515
Raw,1731398674800,22000000000,18,0.0,-1415433870800561664,0.0,333.564095198152,-972.7741044835306,0.0,6,24,0.0,0,0,10,0.0,0.0,0.1,16,0.0,0.1,1575420030,,,,0,,6,-1.0,,,,,,A,777320349807515
Raw,1731398674800,22000000000,18,0.0,-1415433870800561664,0.0,333.564095198152,-972.7741044835306,0.0,6,31,0.0,0,0,10,0.0,0.0,0.1,16,0.0,0.1,1575420030,,,,0,,6,-1.0,,,,,,A,777320349807515
Raw,1731398674800,22000000000,18,0.0,-1415433870800561664,0.0,333.564095198152,-972.7741044835306,0.0,6,33,0.0,0,0,10,0.0,0.0,0.1,16,0.0,0.1,1575420030,,,,0,,6,-1.0,,,,,,A,777320349807515
Raw,1731398674800,22000000000,18,0.0,-1415433870800561664,0.0,333.564095198152,-972.7741044835306,0.0,6,194,0.0,0,0,10,0.0,0.0,0.1,16,0.0,0.1,1575420030,,,,0,,4,-1.0,,,,,,C,777320349807515
Raw,1731398674800,22000000000,18,0.0,-1415433870800561664,0.0,333.564095198152,-972.7741044835306,0.0,6,195,0.0,0,0,10,0.0,0.0,0.1,16,0.0,0.1,1575420030,,,,0,,4,-1.0,,,,,,C,777320349807515
Raw,1731398674800,22000000000,18,0.0,-1415433870800561664,0.0,333.564095198152,-972.7741044835306,0.0,6,2,0.0,0,0,10,0.0,0.0,0.1,16,0.0,0.1,1561097980,,,,0,,5,-1.0,,,,,,I,777320349807515
Raw,1731398674800,22000000000,18,0.0,-1415433870800561664,0.0,333.564095198152,-972.7741044835306,0.0,6,4,0.0,0,0,10,0.0,0.0,0.1,16,0.0,0.1,1561097980,,,,0,,5,-1.0,,,,,,I,777320349807515
Raw,1731398674800,22000000000,18,0.0,-1415433870800561664,0.0,333.564095198152,-972.7741044835306,0.0,6,6,0.0,0,0,10,0.0,0.0,0.1,16,0.0,0.1,1561097980,,,,0,,5,-1.0,,,,,,I,777320349807515
Raw,1731398674800,22000000000,18,0.0,-1415433870800561664,0.0,333.564095198152,-972.7741044835306,0.0,6,7,0.0,0,0,10,0.0,0.0,0.1,16,0.0,0.1,1561097980,,,,0,,5,-1.0,,,,,,I,777320349807515
Raw,1731398674800,22000000000,18,0.0,-1415433870800561664,0.0,333.564095198152,-972.7741044835306,0.0,6,8,0.0,0,0,10,0.0,0.0,0.1,16,0.0,0.1,1561097980,,,,0,,5,-1.0,,,,,,I,777320349807515
Raw,1731398674800,22000000000,18,0.0,-1415433870800561664,0.0,333.564095198152,-972.7741044835306,0.0,6,9,0.0,0,0,10,0.0,0.0,0.1,16,0.0,0.1,1561097980,,,,0,,5,-1.0,,,,,,I,777320349807515
Raw,1731398674800,22000000000,18,0.0,-1415433870800561664,0.0,333.564095198152,-972.7741044835306,0.0,6,22,0.0,0,0,10,0.0,0.0,0.1,16,0.0,0.1,1561097980,,,,0,,5,-1.0,,,,,,I,777320349807515
Raw,1731398674800,22000000000,18,0.0,-1415433870800561664,0.0,333.564095198152,-972.7741044835306,0.0,6,27,0.0,0,0,10,0.0,0.0,0.1,16,0.0,0.1,1561097980,,,,0,,5,-1.0,,,,,,I,777320349807515
Raw,1731398674800,22000000000,18,0.0,-1415433870800561664,0.0,333.564095198152,-972.7741044835306,0.0,6,29,0.0,0,0,10,0.0,0.0,0.1,16,0.0,0.1,1561097980,,,,0,,5,-1.0,,,,,,I,777320349807515
Raw,1731398674800,22000000000,18,0.0,-1415433870800561664,0.0,333.564095198152,-972.7741044835306,0.0,6,30,0.0,0,0,10,0.0,0.0,0.1,16,0.0,0.1,1561097980,,,,0,,5,-1.0,,,,,,I,777320349807515
Status,1731398667351,41,0,1,3,1575420030,0.00,251.61801,20.42819,0,0,1,
Status,1731398667351,41,1,1,4,1575420030,0.00,317.367,39.68735,0,0,1,
Status,1731398667351,41,2,1,8,1575420030,0.00,198.55719,28.793653,0,0,1,
Status,1731398667351,41,3,1,9,1575420030,0.00,321.63287,10.619278,0,0,1,
Status,1731398667351,41,4,1,16,1575420030,0.00,336.85297,62.00076,0,0,1,
Status,1731398667351,41,5,1,26,1575420030,0.00,26.839128,42.361053,0,0,1,
Status,1731398667351,41,6,1,27,1575420030,0.00,171.78293,57.508877,0,0,1,
Status,1731398667351,41,7,1,28,1575420030,0.00,88.15863,27.105951,0,0,1,
Status,1731398667351,41,8,1,31,1575420030,0.00,56.684086,46.7601,0,0,1,
Status,1731398667351,41,9,1,32,1575420030,0.00,149.27945,9.079467,0,0,1,
Status,1731398667351,41,10,3,3,1604531200,0.00,200.43999,48.16371,0,1,1,
Status,1731398667351,41,11,3,4,1605093760,0.00,293.0605,53.818413,0,0,1,
Status,1731398667351,41,12,3,5,1602281220,0.00,329.53436,12.953246,0,0,1,
Status,1731398667351,41,13,3,13,1600593790,0.00,45.06222,15.095938,0,0,1,
Status,1731398667351,41,14,3,14,1597781250,0.00,343.11237,38.838863,0,0,1,
Status,1731398667351,41,15,3,15,1601718780,0.00,286.17044,20.01598,0,0,1,
Status,1731398667351,41,16,3,17,1603968770,0.00,165.51318,6.936899,0,0,1,
Status,1731398667351,41,17,3,23,1603406210,0.00,56.210598,16.173738,0,0,1,
Status,1731398667351,41,18,3,24,1602843780,0.00,116.049065,27.12774,0,1,1,
Status,1731398667351,41,19,5,10,1561097980,0.00,208.50082,51.22271,0,1,1,
Status,1731398667351,41,20,5,13,1561097980,0.00,209.65683,12.521304,0,1,0,
Status,1731398667351,41,21,5,19,1561097980,0.00,239.06558,48.98917,0,1,1,
Status,1731398667351,41,22,5,20,1561097980,0.00,181.94151,25.504469,0,1,1,
Status,1731398667351,41,23,6,4,1575420030,0.00,204.36841,82.85103,0,1,1,
Status,1731398667351,41,24,6,9,1575420030,0.00,319.00046,39.791885,0,1,1,
Status,1731398667351,41,25,6,19,1575420030,0.00,147.04195,25.50723,0,1,0,
Status,1731398667351,41,26,6,24,1575420030,0.00,249.58711,20.892023,0,1,1,
Status,1731398667351,41,27,6,31,1575420030,0.00,299.47916,60.236614,0,1,1,
Status,1731398667351,41,28,6,33,1575420030,0.00,133.3095,7.9192705,0,1,1,
Status,1731398667351,41,29,4,194,1575420030,0.00,50.038456,62.373173,0,1,1,
Status,1731398667351,41,30,4,195,1575420030,0.00,135.65462,25.385199,0,1,1,
Status,1731398667351,41,31,5,2,1561097980,0.00,238.42296,46.47901,0,1,0,
Status,1731398667351,41,32,5,4,1561097980,0.00,112.253006,31.636358,0,1,0,
Status,1731398667351,41,33,5,6,1561097980,0.00,5.114394,57.969738,0,0,1,
Status,1731398667351,41,34,5,7,1561097980,0.00,200.725,62.893414,0,0,1,
Status,1731398667351,41,35,5,8,1561097980,0.00,199.01338,8.540315,0,0,1,
Status,1731398667351,41,36,5,9,1561097980,0.00,345.02066,51.140995,0,0,1,
Status,1731398667351,41,37,5,22,1561097980,0.00,303.47775,26.122961,0,0,1,
Status,1731398667351,41,38,5,27,1561097980,0.00,80.58564,31.277447,0,0,1,
Status,1731398667351,41,39,5,29,1561097980,0.00,190.71988,7.3233476,0,0,1,
Status,1731398667351,41,40,5,30,1561097980,0.00,142.80318,37.94542,0,0,1,
Raw,1731398675800,23000000000,18,0.0,-1415433870800561664,0.0,333.564095198152,-972.7741044835306,0.0,6,3,0.0,0,0,10,0.0,0.0,0.1,16,0.0,0.1,1575420030,,,,0,,1,0.0,,,,,,C,777321350632515
Raw,1731398675800,23000000000,18,0.0,-1415433870800561664,0.0,333.564095198152,-972.7741044835306,0.0,6,4,0.0,0,0,10,0.0,0.0,0.1,16,0.0,0.1,1575420030,,,,0,,1,0.0,,,,,,C,777321350632515
Raw,1731398675800,23000000000,18,0.0,-1415433870800561664,0.0,333.564095198152,-972.7741044835306,0.0,6,8,0.0,0,0,10,0.0,0.0,0.1,16,0.0,0.1,1575420030,,,,0,,1,0.0,,,,,,C,777321350632515
Raw,1731398675800,23000000000,18,0.0,-1415433870800561664,0.0,333.564095198152,-972.7741044835306,0.0,6,9,0.0,0,0,10,0.0,0.0,0.1,16,0.0,0.1,1575420030,,,,0,,1,0.0,,,,,,C,777321350632515
Raw,1731398675800,23000000000,18,0.0,-1415433870800561664,0.0,333.564095198152,-972.7741044835306,0.0,6,16,0.0,0,0,10,0.0,0.0,0.1,16,0.0,0.1,1575420030,,,,0,,1,0.0,,,,,,C,777321350632515
Raw,1731398675800,23000000000,18,0.0,-1415433870800561664,0.0,333.564095198152,-972.7741044835306,0.0,6,26,0.0,0,0,10,0.0,0.0,0.1,16,0.0,0.1,1575420030,,,,0,,1,0.0,,,,,,C,777321350632515
Raw,1731398675800,23000000000,18,0.0,-1415433870800561664,0.0,333.564095198152,-972.7741044835306,0.0,6,27,0.0,0,0,10,0.0,0.0,0.1,16,0.0,0.1,1575420030,,,,0,,1,0.0,,,,,,C,777321350632515
Raw,1731398675800,23000000000,18,0.0,-1415433870800561664,0.0,333.564095198152,-972.7741044835306,0.0,6,28,0.0,0,0,10,0.0,0.0,0.1,16,0.0,0.1,1575420030,,,,0,,1,0.0,,,,,,C,777321350632515
Raw,1731398675800,23000000000,18,0.0,-1415433870800561664,0.0,333.564095198152,-972.7741044835306,0.0,6,31,0.0,0,0,10,0.0,0.0,0.1,16,0.0,0.1,1575420030,,,,0,,1,0.0,,,,,,C,777321350632515
Raw,1731398675800,23000000000,18,0.0,-1415433870800561664,0.0,333.564095198152,-972.7741044835306,0.0,6,32,0.0,0,0,10,0.0,0.0,0.1,16,0.0,0.1,1575420030,,,,0,,1,0.0,,,,,,C,777321350632515
Raw,1731398675800,23000000000,18,0.0,-1415433870800561664,0.0,333.564095198152,-972.7741044835306,0.0,6,3,0.0,0,0,10,0.0,0.0,0.1,16,0.0,0.1,1604531200,,,,0,,3,0.0,,,,,,C,777321350632515
Raw,1731398675800,23000000000,18,0.0,-1415433870800561664,0.0,333.564095198152,-972.7741044835306,0.0,6,4,0.0,0,0,10,0.0,0.0,0.1,16,0.0,0.1,1605093760,,,,0,,3,0.0,,,,,,C,777321350632515
Raw,1731398675800,23000000000,18,0.0,-1415433870800561664,0.0,333.564095198152,-972.7741044835306,0.0,6,5,0.0,0,0,10,0.0,0.0,0.1,16,0.0,0.1,1602281220,,,,0,,3,0.0,,,,,,C,777321350632515
Raw,1731398675800,23000000000,18,0.0,-1415433870800561664,0.0,333.564095198152,-972.7741044835306,0.0,6,13,0.0,0,0,10,0.0,0.0,0.1,16,0.0,0.1,1600593790,,,,0,,3,0.0,,,,,,C,777321350632515
Raw,1731398675800,23000000000,18,0.0,-1415433870800561664,0.0,333.564095198152,-972.7741044835306,0.0,6,14,0.0,0,0,10,0.0,0.0,0.1,16,0.0,0.1,1597781250,,,,0,,3,0.0,,,,,,C,777321350632515
Raw,1731398675800,23000000000,18,0.0,-1415433870800561664,0.0,333.564095198152,-972.7741044835306,0.0,6,15,0.0,0,0,10,0.0,0.0,0.1,16,0.0,0.1,1601718780,,,,0,,3,0.0,,,,,,C,777321350632515
Raw,1731398675800,23000000000,18,0.0,-1415433870800561664,0.0,333.564095198152,-972.7741044835306,0.0,6,17,0.0,0,0,10,0.0,0.0,0.1,16,0.0,0.1,1603968770,,,,0,,3,0.0,,,,,,C,777321350632515
Raw,1731398675800,23000000000,18,0.0,-1415433870800561664,0.0,333.564095198152,-972.7741044835306,0.0,6,23,0.0,0,0,10,0.0,0.0,0.1,16,0.0,0.1,1603406210,,,,0,,3,0.0,,,,,,C,777321350632515
Raw,1731398675800,23000000000,18,0.0,-1415433870800561664,0.0,333.564095198152,-972.7741044835306,0.0,6,24,0.0,0,0,10,0.0,0.0,0.1,16,0.0,0.1,1602843780,,,,0,,3,0.0,,,,,,C,777321350632515
Raw,1731398675800,23000000000,18,0.0,-1415433870800561664,0.0,333.564095198152,-972.7741044835306,0.0,6,10,0.0,0,0,10,0.0,0.0,0.1,16,0.0,0.1,1561097980,,,,0,,5,0.0,,,,,,I,777321350632515
Raw,1731398675800,23000000000,18,0.0,-1415433870800561664,0.0,333.564095198152,-972.7741044835306,0.0,6,13,0.0,0,0,10,0.0,0.0,0.1,16,0.0,0.1,1561097980,,,,0,,5,0.0,,,,,,I,777321350632515
Raw,1731398675800,23000000000,18,0.0,-1415433870800561664,0.0,333.564095198152,-972.7741044835306,0.0,6,19,0.0,0,0,10,0.0,0.0,0.1,16,0.0,0.1,1561097980,,,,0,,5,0.0,,,,,,I,777321350632515
Raw,1731398675800,23000000000,18,0.0,-1415433870800561664,0.0,333.564095198152,-972.7741044835306,0.0,6,20,0.0,0,0,10,0.0,0.0,0.1,16,0.0,0.1,1561097980,,,,0,,5,0.0,,,,,,I,777321350632515
Raw,1731398675800,23000000000,18,0.0,-1415433870800561664,0.0,333.564095198152,-972.7741044835306,0.0,6,4,0.0,0,0,10,0.0,0.0,0.1,16,0.0,0.1,1575420030,,,,0,,6,0.0,,,,,,A,777321350632515
Raw,1731398675800,23000000000,18,0.0,-1415433870800561664,0.0,333.564095198152,-972.7741044835306,0.0,6,9,0.0,0,0,10,0.0,0.0,0.1,16,0.0,0.1,1575420030,,,,0,,6,0.0,,,,,,A,777321350632515
Raw,1731398675800,23000000000,18,0.0,-1415433870800561664,0.0,333.564095198152,-972.7741044835306,0.0,6,19,0.0,0,0,10,0.0,0.0,0.1,16,0.0,0.1,1575420030,,,,0,,6,0.0,,,,,,A,777321350632515
Raw,1731398675800,23000000000,18,0.0,-1415433870800561664,0.0,333.564095198152,-972.7741044835306,0.0,6,24,0.0,0,0,10,0.0,0.0,0.1,16,0.0,0.1,1575420030,,,,0,,6,0.0,,,,,,A,777321350632515
Raw,1731398675800,23000000000,18,0.0,-1415433870800561664,0.0,333.564095198152,-972.7741044835306,0.0,6,31,0.0,0,0,10,0.0,0.0,0.1,16,0.0,0.1,1575420030,,,,0,,6,0.0,,,,,,A,777321350632515
Raw,1731398675800,23000000000,18,0.0,-1415433870800561664,0.0,333.564095198152,-972.7741044835306,0.0,6,33,0.0,0,0,10,0.0,0.0,0.1,16,0.0,0.1,1575420030,,,,0,,6,0.0,,,,,,A,777321350632515
Raw,1731398675800,23000000000,18,0.0,-1415433870800561664,0.0,333.564095198152,-972.7741044835306,0.0,6,194,0.0,0,0,10,0.0,0.0,0.1,16,0.0,0.1,1575420030,,,,0,,4,0.0,,,,,,C,777321350632515
Raw,1731398675800,23000000000,18,0.0,-1415433870800561664,0.0,333.564095198152,-972.7741044835306,0.0,6,195,0.0,0,0,10,0.0,0.0,0.1,16,0.0,0.1,1575420030,,,,0,,4,0.0,,,,,,C,777321350632515
Raw,1731398675800,23000000000,18,0.0,-1415433870800561664,0.0,333.564095198152,-972.7741044835306,0.0,6,2,0.0,0,0,10,0.0,0.0,0.1,16,0.0,0.1,1561097980,,,,0,,5,0.0,,,,,,I,777321350632515
Raw,1731398675800,23000000000,18,0.0,-1415433870800561664,0.0,333.564095198152,-972.7741044835306,0.0,6,4,0.0,0,0,10,0.0,0.0,0.1,16,0.0,0.1,1561097980,,,,0,,5,0.0,,,,,,I,777321350632515
Raw,1731398675800,23000000000,18,0.0,-1415433870800561664,0.0,333.564095198152,-972.7741044835306,0.0,6,6,0.0,0,0,10,0.0,0.0,0.1,16,0.0,0.1,1561097980,,,,0,,5,0.0,,,,,,I,777321350632515
Raw,1731398675800,23000000000,18,0.0,-1415433870800561664,0.0,333.564095198152,-972.7741044835306,0.0,6,7,0.0,0,0,10,0.0,0.0,0.1,16,0.0,0.1,1561097980,,,,0,,5,0.0,,,,,,I,777321350632515
Raw,1731398675800,23000000000,18,0.0,-1415433870800561664,0.0,333.564095198152,-972.7741044835306,0.0,6,8,0.0,0,0,10,0.0,0.0,0.1,16,0.0,0.1,1561097980,,,,0,,5,0.0,,,,,,I,777321350632515
Raw,1731398675800,23000000000,18,0.0,-1415433870800561664,0.0,333.564095198152,-972.7741044835306,0.0,6,9,0.0,0,0,10,0.0,0.0,0.1,16,0.0,0.1,1561097980,,,,0,,5,0.0,,,,,,I,777321350632515
Raw,1731398675800,23000000000,18,0.0,-1415433870800561664,0.0,333.564095198152,-972.7741044835306,0.0,6,22,0.0,0,0,10,0.0,0.0,0.1,16,0.0,0.1,1561097980,,,,0,,5,0.0,,,,,,I,777321350632515
Raw,1731398675800,23000000000,18,0.0,-1415433870800561664,0.0,333.564095198152,-972.7741044835306,0.0,6,27,0.0,0,0,10,0.0,0.0,0.1,16,0.0,0.1,1561097980,,,,0,,5,0.0,,,,,,I,777321350632515
Raw,1731398675800,23000000000,18,0.0,-1415433870800561664,0.0,333.564095198152,-972.7741044835306,0.0,6,29,0.0,0,0,10,0.0,0.0,0.1,16,0.0,0.1,1561097980,,,,0,,5,0.0,,,,,,I,777321350632515
Raw,1731398675800,23000000000,18,0.0,-1415433870800561664,0.0,333.564095198152,-972.7741044835306,0.0,6,30,0.0,0,0,10,0.0,0.0,0.1,16,0.0,0.1,1561097980,,,,0,,5,0.0,,,,,,I,777321350632515
Status,1731398667351,41,0,1,3,1575420030,0.00,251.61047,20.424982,0,0,1,
Status,1731398667351,41,1,1,4,1575420030,0.00,317.36288,39.694016,0,0,1,
Status,1731398667351,41,2,1,8,1575420030,0.00,198.55797,28.801216,0,0,1,
Status,1731398667351,41,3,1,9,1575420030,0.00,321.6315,10.625434,0,0,1,
Status,1731398667351,41,4,1,16,1575420030,0.00,336.8686,61.99671,0,0,1,
Status,1731398667351,41,5,1,26,1575420030,0.00,26.845621,42.35572,0,0,1,
Status,1731398667351,41,6,1,27,1575420030,0.00,171.77908,57.51743,0,0,1,
Status,1731398667351,41,7,1,28,1575420030,0.00,88.16665,27.102812,0,0,1,
Status,1731398667351,41,8,1,31,1575420030,0.00,56.69542,46.75886,0,0,1,
Status,1731398667351,41,9,1,32,1575420030,0.00,149.28098,9.072796,0,0,1,
Status,1731398667351,41,10,3,3,1604531200,0.00,200.43564,48.154194,0,1,1,
Status,1731398667351,41,11,3,4,1605093760,0.00,293.04425,53.820908,0,0,1,
Status,1731398667351,41,12,3,5,1602281220,0.00,329.53018,12.959778,0,0,1,
Status,1731398667351,41,13,3,13,1600593790,0.00,45.06979,15.092453,0,0,1,
Status,1731398667351,41,14,3,14,1597781250,0.00,343.12332,38.837513,0,0,1,
Status,1731398667351,41,15,3,15,1601718780,0.00,286.1795,20.018095,0,0,1,
Status,1731398667351,41,16,3,17,1603968770,0.00,165.50845,6.943213,0,0,1,
Status,1731398667351,41,17,3,23,1603406210,0.00,56.201794,16.17285,0,0,1,
Status,1731398667351,41,18,3,24,1602843780,0.00,116.0406,27.133093,0,1,1,
Status,1731398667351,41,19,5,10,1561097980,0.00,208.50558,51.225132,0,1,1,
Status,1731398667351,41,20,5,13,1561097980,0.00,209.6553,12.518252,0,1,0,
Status,1731398667351,41,21,5,19,1561097980,0.00,239.05585,48.984596,0,1,1,
Status,1731398667351,41,22,5,20,1561097980,0.00,181.93947,25.497944,0,1,1,
Status,1731398667351,41,23,6,4,1575420030,0.00,204.3428,82.84452,0,1,1,
Status,1731398667351,41,24,6,9,1575420030,0.00,318.99728,39.79713,0,1,1,
Status,1731398667351,41,25,6,19,1575420030,0.00,147.04498,25.501757,0,1,0,
Status,1731398667351,41,26,6,24,1575420030,0.00,249.59319,20.895046,0,1,1,
Status,1731398667351,41,27,6,31,1575420030,0.00,299.4926,60.236,0,1,1,
Status,1731398667351,41,28,6,33,1575420030,0.00,133.30449,7.922532,0,1,1,
Status,1731398667351,41,29,4,194,1575420030,0.00,50.035812,62.372448,0,1,1,
Status,1731398667351,41,30,4,195,1575420030,0.00,135.6526,25.387491,0,1,1,
Status,1731398667351,41,31,5,2,1561097980,0.00,238.42271,46.478863,0,1,0,
Status,1731398667351,41,32,5,4,1561097980,0.00,112.25303,31.636347,0,1,0,
Status,1731398667351,41,33,5,6,1561097980,0.00,5.1171336,57.97167,0,0,1,
Status,1731398667351,41,34,5,7,1561097980,0.00,200.73103,62.89627,0,0,1,
Status,1731398667351,41,35,5,8,1561097980,0.00,199.01196,8.537537,0,0,1,
Status,1731398667351,41,36,5,9,1561097980,0.00,345.02277,51.142464,0,0,1,
Status,1731398667351,41,37,5,22,1561097980,0.00,303.47098,26.125729,0,0,1,
Status,1731398667351,41,38,5,27,1561097980,0.00,80.57728,31.277723,0,0,1,
Status,1731398667351,41,39,5,29,1561097980,0.00,190.71732,7.328536,0,0,1,
Status,1731398667351,41,40,5,30,1561097980,0.00,142.79716,37.951077,0,0,1,
Raw,1731398676800,24000000000,18,0.0,-1415433870800561664,0.0,333.564095198152,-972.7741044835306,0.0,6,3,0.0,0,0,10,0.0,0.0,0.1,16,0.0,0.1,1575420030,,,,0,,1,1.0,,,,,,C,777322350479389
Raw,1731398676800,24000000000,18,0.0,-1415433870800561664,0.0,333.564095198152,-972.7741044835306,0.0,6,4,0.0,0,0,10,0.0,0.0,0.1,16,0.0,0.1,1575420030,,,,0,,1,1.0,,,,,,C,777322350479389
Raw,1731398676800,24000000000,18,0.0,-1415433870800561664,0.0,333.564095198152,-972.7741044835306,0.0,6,8,0.0,0,0,10,0.0,0.0,0.1,16,0.0,0.1,1575420030,,,,0,,1,1.0,,,,,,C,777322350479389
Raw,1731398676800,24000000000,18,0.0,-1415433870800561664,0.0,333.564095198152,-972.7741044835306,0.0,6,9,0.0,0,0,10,0.0,0.0,0.1,16,0.0,0.1,1575420030,,,,0,,1,1.0,,,,,,C,777322350479389
Raw,1731398676800,24000000000,18,0.0,-1415433870800561664,0.0,333.564095198152,-972.7741044835306,0.0,6,16,0.0,0,0,10,0.0,0.0,0.1,16,0.0,0.1,1575420030,,,,0,,1,1.0,,,,,,C,777322350479389
Raw,1731398676800,24000000000,18,0.0,-1415433870800561664,0.0,333.564095198152,-972.7741044835306,0.0,6,26,0.0,0,0,10,0.0,0.0,0.1,16,0.0,0.1,1575420030,,,,0,,1,1.0,,,,,,C,777322350479389
Raw,1731398676800,24000000000,18,0.0,-1415433870800561664,0.0,333.564095198152,-972.7741044835306,0.0,6,27,0.0,0,0,10,0.0,0.0,0.1,16,0.0,0.1,1575420030,,,,0,,1,1.0,,,,,,C,777322350479389
Raw,1731398676800,24000000000,18,0.0,-1415433870800561664,0.0,333.564095198152,-972.7741044835306,0.0,6,28,0.0,0,0,10,0.0,0.0,0.1,16,0.0,0.1,1575420030,,,,0,,1,1.0,,,,,,C,777322350479389
Raw,1731398676800,24000000000,18,0.0,-1415433870800561664,0.0,333.564095198152,-972.7741044835306,0.0,6,31,0.0,0,0,10,0.0,0.0,0.1,16,0.0,0.1,1575420030,,,,0,,1,1.0,,,,,,C,777322350479389
Raw,1731398676800,24000000000,18,0.0,-1415433870800561664,0.0,333.564095198152,-972.7741044835306,0.0,6,32,0.0,0,0,10,0.0,0.0,0.1,16,0.0,0.1,1575420030,,,,0,,1,1.0,,,,,,C,777322350479389
Raw,1731398676800,24000000000,18,0.0,-1415433870800561664,0.0,333.564095198152,-972.7741044835306,0.0,6,3,0.0,0,0,10,0.0,0.0,0.1,16,0.0,0.1,1604531200,,,,0,,3,1.0,,,,,,C,777322350479389
Raw,1731398676800,24000000000,18,0.0,-1415433870800561664,0.0,333.564095198152,-972.7741044835306,0.0,6,4,0.0,0,0,10,0.0,0.0,0.1,16,0.0,0.1,1605093760,,,,0,,3,1.0,,,,,,C,777322350479389
Raw,1731398676800,24000000000,18,0.0,-1415433870800561664,0.0,333.564095198152,-972.7741044835306,0.0,6,5,0.0,0,0,10,0.0,0.0,0.1,16,0.0,0.1,1602281220,,,,0,,3,1.0,,,,,,C,777322350479389
Raw,1731398676800,24000000000,18,0.0,-1415433870800561664,0.0,333.564095198152,-972.7741044835306,0.0,6,13,0.0,0,0,10,0.0,0.0,0.1,16,0.0,0.1,1600593790,,,,0,,3,1.0,,,,,,C,777322350479389
Raw,1731398676800,24000000000,18,0.0,-1415433870800561664,0.0,333.564095198152,-972.7741044835306,0.0,6,14,0.0,0,0,10,0.0,0.0,0.1,16,0.0,0.1,1597781250,,,,0,,3,1.0,,,,,,C,777322350479389
Raw,1731398676800,24000000000,18,0.0,-1415433870800561664,0.0,333.564095198152,-972.7741044835306,0.0,6,15,0.0,0,0,10,0.0,0.0,0.1,16,0.0,0.1,1601718780,,,,0,,3,1.0,,,,,,C,777322350479389
Raw,1731398676800,24000000000,18,0.0,-1415433870800561664,0.0,333.564095198152,-972.7741044835306,0.0,6,17,0.0,0,0,10,0.0,0.0,0.1,16,0.0,0.1,1603968770,,,,0,,3,1.0,,,,,,C,777322350479389
Raw,1731398676800,24000000000,18,0.0,-1415433870800561664,0.0,333.564095198152,-972.7741044835306,0.0,6,23,0.0,0,0,10,0.0,0.0,0.1,16,0.0,0.1,1603406210,,,,0,,3,1.0,,,,,,C,777322350479389
Raw,1731398676800,24000000000,18,0.0,-1415433870800561664,0.0,333.564095198152,-972.7741044835306,0.0,6,24,0.0,0,0,10,0.0,0.0,0.1,16,0.0,0.1,1602843780,,,,0,,3,1.0,,,,,,C,777322350479389
Raw,1731398676800,24000000000,18,0.0,-1415433870800561664,0.0,333.564095198152,-972.7741044835306,0.0,6,10,0.0,0,0,10,0.0,0.0,0.1,16,0.0,0.1,1561097980,,,,0,,5,1.0,,,,,,I,777322350479389
Raw,1731398676800,24000000000,18,0.0,-1415433870800561664,0.0,333.564095198152,-972.7741044835306,0.0,6,13,0.0,0,0,10,0.0,0.0,0.1,16,0.0,0.1,1561097980,,,,0,,5,1.0,,,,,,I,777322350479389
Raw,1731398676800,24000000000,18,0.0,-1415433870800561664,0.0,333.564095198152,-972.7741044835306,0.0,6,19,0.0,0,0,10,0.0,0.0,0.1,16,0.0,0.1,1561097980,,,,0,,5,1.0,,,,,,I,777322350479389
Raw,1731398676800,24000000000,18,0.0,-1415433870800561664,0.0,333.564095198152,-972.7741044835306,0.0,6,20,0.0,0,0,10,0.0,0.0,0.1,16,0.0,0.1,1561097980,,,,0,,5,1.0,,,,,,I,777322350479389
Raw,1731398676800,24000000000,18,0.0,-1415433870800561664,0.0,333.564095198152,-972.7741044835306,0.0,6,4,0.0,0,0,10,0.0,0.0,0.1,16,0.0,0.1,1575420030,,,,0,,6,1.0,,,,,,A,777322350479389
Raw,1731398676800,24000000000,18,0.0,-1415433870800561664,0.0,333.564095198152,-972.7741044835306,0.0,6,9,0.0,0,0,10,0.0,0.0,0.1,16,0.0,0.1,1575420030,,,,0,,6,1.0,,,,,,A,777322350479389
Raw,1731398676800,24000000000,18,0.0,-1415433870800561664,0.0,333.564095198152,-972.7741044835306,0.0,6,19,0.0,0,0,10,0.0,0.0,0.1,16,0.0,0.1,1575420030,,,,0,,6,1.0,,,,,,A,777322350479389
Raw,1731398676800,24000000000,18,0.0,-1415433870800561664,0.0,333.564095198152,-972.7741044835306,0.0,6,24,0.0,0,0,10,0.0,0.0,0.1,16,0.0,0.1,1575420030,,,,0,,6,1.0,,,,,,A,777322350479389
Raw,1731398676800,24000000000,18,0.0,-1415433870800561664,0.0,333.564095198152,-972.7741044835306,0.0,6,31,0.0,0,0,10,0.0,0.0,0.1,16,0.0,0.1,1575420030,,,,0,,6,1.0,,,,,,A,777322350479389
Raw,1731398676800,24000000000,18,0.0,-1415433870800561664,0.0,333.564095198152,-972.7741044835306,0.0,6,33,0.0,0,0,10,0.0,0.0,0.1,16,0.0,0.1,1575420030,,,,0,,6,1.0,,,,,,A,777322350479389
Raw,1731398676800,24000000000,18,0.0,-1415433870800561664,0.0,333.564095198152,-972.7741044835306,0.0,6,194,0.0,0,0,10,0.0,0.0,0.1,16,0.0,0.1,1575420030,,,,0,,4,1.0,,,,,,C,777322350479389
Raw,1731398676800,24000000000,18,0.0,-1415433870800561664,0.0,333.564095198152,-972.7741044835306,0.0,6,195,0.0,0,0,10,0.0,0.0,0.1,16,0.0,0.1,1575420030,,,,0,,4,1.0,,,,,,C,777322350479389
Raw,1731398676800,24000000000,18,0.0,-1415433870800561664,0.0,333.564095198152,-972.7741044835306,0.0,6,2,0.0,0,0,10,0.0,0.0,0.1,16,0.0,0.1,1561097980,,,,0,,5,1.0,,,,,,I,777322350479389
Raw,1731398676800,24000000000,18,0.0,-1415433870800561664,0.0,333.564095198152,-972.7741044835306,0.0,6,4,0.0,0,0,10,0.0,0.0,0.1,16,0.0,0.1,1561097980,,,,0,,5,1.0,,,,,,I,777322350479389
Raw,1731398676800,24000000000,18,0.0,-1415433870800561664,0.0,333.564095198152,-972.7741044835306,0.0,6,6,0.0,0,0,10,0.0,0.0,0.1,16,0.0,0.1,1561097980,,,,0,,5,1.0,,,,,,I,777322350479389
Raw,1731398676800,24000000000,18,0.0,-1415433870800561664,0.0,333.564095198152,-972.7741044835306,0.0,6,7,0.0,0,0,10,0.0,0.0,0.1,16,0.0,0.1,1561097980,,,,0,,5,1.0,,,,,,I,777322350479389
Raw,1731398676800,24000000000,18,0.0,-1415433870800561664,0.0,333.564095198152,-972.7741044835306,0.0,6,8,0.0,0,0,10,0.0,0.0,0.1,16,0.0,0.1,1561097980,,,,0,,5,1.0,,,,,,I,777322350479389
Raw,1731398676800,24000000000,18,0.0,-1415433870800561664,0.0,333.564095198152,-972.7741044835306,0.0,6,9,0.0,0,0,10,0.0,0.0,0.1,16,0.0,0.1,1561097980,,,,0,,5,1.0,,,,,,I,777322350479389
Raw,1731398676800,24000000000,18,0.0,-1415433870800561664,0.0,333.564095198152,-972.7741044835306,0.0,6,22,0.0,0,0,10,0.0,0.0,0.1,16,0.0,0.1,1561097980,,,,0,,5,1.0,,,,,,I,777322350479389
Raw,1731398676800,24000000000,18,0.0,-1415433870800561664,0.0,333.564095198152,-972.7741044835306,0.0,6,27,0.0,0,0,10,0.0,0.0,0.1,16,0.0,0.1,1561097980,,,,0,,5,1.0,,,,,,I,777322350479389
Raw,1731398676800,24000000000,18,0.0,-1415433870800561664,0.0,333.564095198152,-972.7741044835306,0.0,6,29,0.0,0,0,10,0.0,0.0,0.1,16,0.0,0.1,1561097980,,,,0,,5,1.0,,,,,,I,777322350479389
Raw,1731398676800,24000000000,18,0.0,-1415433870800561664,0.0,333.564095198152,-972.7741044835306,0.0,6,30,0.0,0,0,10,0.0,0.0,0.1,16,0.0,0.1,1561097980,,,,0,,5,1.0,,,,,,I,777322350479389
Status,1731398667351,41,0,1,3,1575420030,0.00,251.60294,20.421772,0,0,1,
Status,1731398667351,41,1,1,4,1575420030,0.00,317.35873,39.70068,0,0,1,
Status,1731398667351,41,2,1,8,1575420030,0.00,198.55875,28.80878,0,0,1,
Status,1731398667351,41,3,1,9,1575420030,0.00,321.6301,10.63159,0,0,1,
Status,1731398667351,41,4,1,16,1575420030,0.00,336.8842,61.99266,0,0,1,
Status,1731398667351,41,5,1,26,1575420030,0.00,26.852116,42.350388,0,0,1,
Status,1731398667351,41,6,1,27,1575420030,0.00,171.77524,57.52598,0,0,1,
Status,1731398667351,41,7,1,28,1575420030,0.00,88.17467,27.09967,0,0,1,
Status,1731398667351,41,8,1,31,1575420030,0.00,56.70675,46.75762,0,0,1,
Status,1731398667351,41,9,1,32,1575420030,0.00,149.2825,9.066125,0,0,1,
Status,1731398667351,41,10,3,3,1604531200,0.00,200.43127,48.144676,0,1,1,
Status,1731398667351,41,11,3,4,1605093760,0.00,293.028,53.8234,0,0,1,
Status,1731398667351,41,12,3,5,1602281220,0.00,329.52603,12.96631,0,0,1,
Status,1731398667351,41,13,3,13,1600593790,0.00,45.077354,15.088968,0,0,1,
Status,1731398667351,41,14,3,14,1597781250,0.00,343.1343,38.83616,0,0,1,
Status,1731398667351,41,15,3,15,1601718780,0.00,286.1886,20.020208,0,0,1,
Status,1731398667351,41,16,3,17,1603968770,0.00,165.50372,6.9495273,0,0,1,
Status,1731398667351,41,17,3,23,1603406210,0.00,56.192993,16.171959,0,0,1,
Status,1731398667351,41,18,3,24,1602843780,0.00,116.03214,27.138443,0,1,1,
Status,1731398667351,41,19,5,10,1561097980,0.00,208.51036,51.227554,0,1,1,
Status,1731398667351,41,20,5,13,1561097980,0.00,209.6538,12.515201,0,1,0,
Status,1731398667351,41,21,5,19,1561097980,0.00,239.04611,48.980026,0,1,1,
Status,1731398667351,41,22,5,20,1561097980,0.00,181.93744,25.491419,0,1,1,
Status,1731398667351,41,23,6,4,1575420030,0.00,204.31725,82.838005,0,1,1,
Status,1731398667351,41,24,6,9,1575420030,0.00,318.99408,39.802372,0,1,1,
Status,1731398667351,41,25,6,19,1575420030,0.00,147.04802,25.496283,0,1,0,
Status,1731398667351,41,26,6,24,1575420030,0.00,249.59926,20.89807,0,1,1,
Status,1731398667351,41,27,6,31,1575420030,0.00,299.50604,60.235382,0,1,1,
Status,1731398667351,41,28,6,33,1575420030,0.00,133.29948,7.9257936,0,1,1,
Status,1731398667351,41,29,4,194,1575420030,0.00,50.03317,62.37172,0,1,1,
Status,1731398667351,41,30,4,195,1575420030,0.00,135.65059,25.389786,0,1,1,
Status,1731398667351,41,31,5,2,1561097980,0.00,238.42247,46.478718,0,1,0,
Status,1731398667351,41,32,5,4,1561097980,0.00,112.25305,31.636337,0,1,0,
Status,1731398667351,41,33,5,6,1561097980,0.00,5.119873,57.9736,0,0,1,
Status,1731398667351,41,34,5,7,1561097980,0.00,200.73708,62.899128,0,0,1,
Status,1731398667351,41,35,5,8,1561097980,0.00,199.01056,8.534759,0,0,1,
Status,1731398667351,41,36,5,9,1561097980,0.00,345.02484,51.143932,0,0,1,
Status,1731398667351,41,37,5,22,1561097980,0.00,303.46423,26.128496,0,0,1,
Status,1731398667351,41,38,5,27,1561097980,0.00,80.568924,31.277998,0,0,1,
Status,1731398667351,41,39,5,29,1561097980,0.00,190.71475,7.333725,0,0,1,
Status,1731398667351,41,40,5,30,1561097980,0.00,142.79115,37.95673,0,0,1,
Raw,1731398677800,25000000000,18,0.0,-1415433870800561664,0.0,333.564095198152,-972.7741044835306,0.0,6,3,0.0,0,0,10,0.0,0.0,0.1,16,0.0,0.1,1575420030,,,,0,,1,1.0,,,,,,C,777323350826785
Raw,1731398677800,25000000000,18,0.0,-1415433870800561664,0.0,333.564095198152,-972.7741044835306,0.0,6,4,0.0,0,0,10,0.0,0.0,0.1,16,0.0,0.1,1575420030,,,,0,,1,1.0,,,,,,C,777323350826785
Raw,1731398677800,25000000000,18,0.0,-1415433870800561664,0.0,333.564095198152,-972.7741044835306,0.0,6,8,0.0,0,0,10,0.0,0.0,0.1,16,0.0,0.1,1575420030,,,,0,,1,1.0,,,,,,C,777323350826785
Raw,1731398677800,25000000000,18,0.0,-1415433870800561664,0.0,333.564095198152,-972.7741044835306,0.0,6,9,0.0,0,0,10,0.0,0.0,0.1,16,0.0,0.1,1575420030,,,,0,,1,1.0,,,,,,C,777323350826785
Raw,1731398677800,25000000000,18,0.0,-1415433870800561664,0.0,333.564095198152,-972.7741044835306,0.0,6,16,0.0,0,0,10,0.0,0.0,0.1,16,0.0,0.1,1575420030,,,,0,,1,1.0,,,,,,C,777323350826785
Raw,1731398677800,25000000000,18,0.0,-1415433870800561664,0.0,333.564095198152,-972.7741044835306,0.0,6,26,0.0,0,0,10,0.0,0.0,0.1,16,0.0,0.1,1575420030,,,,0,,1,1.0,,,,,,C,777323350826785
Raw,1731398677800,25000000000,18,0.0,-1415433870800561664,0.0,333.564095198152,-972.7741044835306,0.0,6,27,0.0,0,0,10,0.0,0.0,0.1,16,0.0,0.1,1575420030,,,,0,,1,1.0,,,,,,C,777323350826785
