     4.01           OBSERVATION DATA    M                   RINEX VERSION / TYPE
GnssLogger          HUAWEI 10           20241128 121802 UTC PGM / RUN BY / DATE
Google GnssLogger                                           MARKER NAME
Unknown                                                     MARKER NUMBER
Unknown             Unknown                                 OBSERVER / AGENCY
Unknown             GnssLogger          v3.1.0.3            REC # / TYPE / VERS
Unknown             Unknown                                 ANT # / TYPE
        0.0000        0.0000        0.0000                  ANTENNA: DELTA H/E/N
G    6 C1C D1C S1C C5Q D5Q S5Q                              SYS / # / OBS TYPES
R    3 C1C D1C S1C                                          SYS / # / OBS TYPES
J    6 C1C D1C S1C C5Q D5Q S5Q                              SYS / # / OBS TYPES
C    3 C2I D2I S2I                                          SYS / # / OBS TYPES
E    3 C1A D1A S1A                                          SYS / # / OBS TYPES
  2024    11    28    12    18   02.0000000     GPS         TIME OF FIRST OBS
 6 R09 -2 R15  0 R16 -1 R18 -3 R19  3 R20  2                GLONASS SLOT / FRQ #
HUAWEI LYA-AL00 (Android 10) HW Year: 2018 HW Model:        COMMENT
Hisilicon Corporation Hi1103 V100                           COMMENT
                                                            END OF HEADER
> 2024 11 28 12 18 02.0000174  0 33                      
G03  22936857.14424      3957.47724        27.00024  22936894.01924      2957.60924        24.00024
G07  20960830.61926      -477.79726        41.00026                                                
G17  22463114.31025      2307.08425        35.00025                                                
G30  21034892.54727      1512.42227        44.00027  21034907.53726      1128.62826        37.00026
J03  38403649.20723       676.35923        20.00023  38403633.91723       504.86623        19.00023
G08  24088586.31924      -621.85524        25.00024  24088586.61822      -464.49122        17.00022
G02  21288737.31426      -703.28526        39.00026                                                
G14  22069023.03324      4050.08124        27.00024                                                
R09  21359306.36025      5079.52125        32.00025
R15  21905628.34925     -1585.46225        31.00025
R20  22003772.90524      4343.24324        26.00024
R19  19632902.32523       334.37623        20.00023
J02  38607752.40922      2567.61322        13.00022                                                
G19  24662932.60722      3379.39622        15.00022                                                
G21  22394521.19623     -1807.51623        23.00023                                                
R18  21455560.42522     -1871.74422        16.00022
G22  24073719.31121      3967.53421        12.00021                                                
C06  36674806.66026       161.75826        39.00026
R16  19282346.60925      1744.12725        33.00025
C07  36828841.22425      1488.57025        31.00025
E25  24677283.97222       886.03922        17.00022
C08  39961106.40223      3304.08323        22.00023
E02  24056399.10125      2758.12625        34.00025
C09  36407653.20625       566.96625        32.00025
C29  25895244.49523      3661.10123        22.00023
C10  37486325.05725      1494.67925        31.00025
C27  22567918.15524      -314.06124        27.00024
E03  28118164.20022       -85.56122        16.00022
C28  25901625.27822     -1117.33522        14.00022
C30  22320957.82227      1886.53727        45.00027
C02  37150603.97226      1502.56226        36.00026
E36  23592590.48925       796.51225        34.00025
C03  36174047.12825      1529.49925        33.00025
> 2024 11 28 12 18 03.0000184  0 33                      
G03  22936404.45824      3958.43424        26.00024  22936439.83324      2956.71724        24.00024
G07  20961221.54826      -475.76826        41.00026                                                
G17  22462974.90625      2309.55325        35.00025                                                
G30  21034904.83827      1513.61027        46.00027  21034919.22826      1130.02826        41.00026
J03  38403823.68623       676.92223        21.00023  38403804.49924       507.43724        24.00024
G08  24089002.73025      -619.23225        30.00025  24089005.12923      -463.06923        18.00023
G02  21289175.31126      -701.56226        38.00026                                                
G14  22068552.05922      4050.74522        15.00022                                                
R09  21358651.31326      5080.63926        37.00026
R15  21906231.53123     -1583.62223        19.00023
R20  22003260.85924      4343.30924        26.00024
R19  19633133.76424       332.97724        28.00024
J02  38607559.64322      2570.89122        16.00022                                                
G19  24662590.84422      3379.59622        15.00022                                                
G21  22395166.34924     -1804.81824        25.00024                                                
R18  21456200.18222     -1865.83222        17.00022
G22  24073267.52422      3967.27222        14.00022                                                
C06  36675074.07526       163.71726        37.00026
R16  19282323.52525      1744.66525        35.00025
C07  36828855.01425      1490.96925        34.00025
E25  24677415.88022       887.90322        16.00022
C08  39960777.82923      3305.67123        18.00023
E02  24056174.25725      2761.12225        33.00025
C09  36407845.67325       567.70225        33.00025
C29  25894842.47424      3663.03324        24.00024
C10  37486338.24825      1495.90525        32.00025
C27  22568276.10825      -312.90625        32.00025
E03  28118484.37822       -85.61422        15.00022
C28  25902143.31922     -1120.94922        14.00022
C30  22320893.36727      1888.37527        46.00027
C02  37150613.86524      1505.26224        29.00024
E36  23592733.19125       798.61725        31.00025
C03  36174054.62326      1529.75126        36.00026
> 2024 11 28 12 18 04.0000192  0 33                      
G03  22935888.81524      3959.66124        25.00024  22935927.48824      2955.32724        25.00024
G07  20961556.11727      -475.30527        44.00027                                                
G17  22462771.04725      2311.55425        35.00025                                                
G30  21034857.77127      1514.66027        46.00027  21034869.16326      1130.67926        39.00026
J03  38403928.91324       678.47324        24.00024  38403914.22323       509.38923        22.00023
G08  24089356.78525      -617.22625        31.00025  24089362.48123      -461.12723        19.00023
G02  21289548.25225      -700.97325        33.00025                                                
G14  22068022.32622      4051.65522        16.00022                                                
R09  21357937.50826      5082.43126        37.00026
R15  21906773.25624     -1584.44024        24.00024
R20  22002691.25424      4343.71024        27.00024
R19  19633309.14324       335.85624        26.00024
J02  38607301.22224      2576.48224        25.00024                                                
G19  24662190.32122      3379.39322        15.00022                                                
G21  22395751.24424     -1802.58524        24.00024                                                
R18  21456784.77724     -1859.14924        26.00024
G22  24072754.87921      3969.61821        12.00021                                                
C06  36675280.03226       165.62326        39.00026
R16  19282237.78526      1746.93626        36.00026
C07  36828807.94725      1492.96225        34.00025
E25  24677488.43022       887.72522        16.00022
C08  39960385.10122      3309.68322        17.00022
E02  24055889.75425      2762.55525        31.00025
C09  36407978.18125       569.68525        35.00025
C29  25894376.29624      3664.97324        24.00024
C10  37486290.88125      1497.97725        31.00025
C27  22568574.10125      -310.89825        30.00025
E03  28118739.80222       -82.85822        15.00022
C28  25902601.70222     -1117.44222        13.00022
C30  22320768.65327      1889.18827        46.00027
C02  37150565.89825      1505.16925        35.00025
E36  23592812.63624       800.14424        25.00024
C03  36174002.15926      1530.29126        38.00026
> 2024 11 28 12 18 05.0000202  0 36                      
G03  22935429.53323      3962.01723        20.00023  22935473.00224      2956.82124        25.00024
G07  20961943.74827      -475.59427        43.00027                                                
G17  22462628.34625      2312.84325        35.00025                                                
G30  21034868.26427      1513.83827        46.00027  21034879.95626      1130.85626        38.00026
J03  38404094.39924       679.49524        25.00024  38404082.70723       510.23023        19.00023
G08  24089771.09825      -616.83125        31.00025  24089779.49323      -460.62823        20.00023
G02  21289980.55325      -701.07225        33.00025                                                
G14  22067554.95022      4055.94922        16.00022                                                
R09  21357272.56826      5083.38826        37.00026
R15  21907373.44123     -1580.64423        23.00023
R20  22002178.60924      4343.92124        26.00024
R19  19633540.58324       338.11424        24.00024
J02  38607099.16124      2581.05524        26.00024                                                
G19  24661847.35822      3385.48222        16.00022                                                
G21  22396394.89822     -1799.09522        15.00022                                                
R18  21457430.23024     -1877.04424        25.00024
G22  24072298.59421      3972.56921        12.00021                                                
C06  36675549.24626       165.08626        40.00026
R16  19282212.00226      1745.67926        36.00026
C07  36828820.83825      1493.48725        34.00025
E25  24677621.23822       888.25922        14.00022
C08  39960050.83223      3311.17323        23.00023
E02  24055664.31025      2763.03525        31.00025
C09  36408169.74925       570.68725        34.00025
C29  25893973.37524      3664.39824        25.00024
C10  37486303.47225      1499.32925        30.00025
C27  22568927.85624      -309.41724        28.00024
E03  28119059.38022       -82.05822        14.00022
C28  25903120.34321     -1122.70121        11.00021
C30  22320705.39727      1889.27127        46.00027
C02  37150577.59025      1505.29025        31.00025
C16  36956573.79625       129.87725        32.00025
E36  23592953.23824       800.23624        28.00024
C39  37649214.59127       -65.98227        42.00027
C40  37057179.04925      1334.26525        33.00025
C03  36174008.75526      1531.45926        36.00026
> 2024 11 28 12 18 06.0000212  0 37                      
G03  22934976.24622      3962.33722        17.00022  22935019.41624      2955.92824        24.00024
G07  20962330.18127      -476.98027        42.00027                                                
G17  22462488.34326      2312.40726        36.00026                                                
G30  21034879.05627      1512.68727        44.00027  21034889.84926      1128.37026        37.00026
J03  38404268.27823       679.70123        20.00023  38404251.49023       510.23923        22.00023
G08  24090188.70924      -615.87824        27.00024  24090196.20423      -460.04123        21.00023
G02  21290412.85426      -701.12226        37.00026                                                
G14  22067083.07623      4055.34923        18.00023                                                
R09  21356620.21925      5083.04725        32.00025
R15  21907966.13124     -1580.20424        26.00024
R20  22001659.06824      4345.73624        25.00024
R19  19633775.62023       336.40423        21.00023
J02  38606904.59623      2584.87623        21.00023                                                
G19  24661499.29922      3388.16322        15.00022                                                
G21  22397036.45423     -1799.74123        19.00023                                                
R18  21458081.08023     -1878.72823        23.00023
G22  24071840.81122      3972.52322        14.00022                                                
C06  36675817.26026       164.83326        39.00026
R16  19282186.22025      1744.39025        33.00025
C07  36828834.32926      1494.42626        40.00026
E25  24677753.14722       887.21722        13.00022
C08  39959712.66723      3311.62223        21.00023
E02  24055439.46626      2762.92226        37.00026
C09  36408362.21526       570.96526        38.00026
C29  25893568.35624      3666.16424        24.00024
C10  37486317.56225      1500.23925        30.00025
C27  22569286.10824      -310.00324        27.00024
E03  28119374.76222       -75.61222        13.00022
C28  25903638.98421     -1123.49721        10.00021
C30  22320643.94027      1888.34227        45.00027
C02  37150588.68326      1505.46726        36.00026
C16  36956842.11124       129.56024        25.00024
E36  23593103.43425       800.28225        33.00025
C01  37439735.21125      1531.98825        32.00025
C39  37649529.37327       -65.80827        42.00027
C40  37057221.32026      1334.90926        36.00026
C03  36174014.45124      1538.46324        28.00024
> 2024 11 28 12 18 07.0000222  0 38                      
G03  22934526.85723      3962.06423        23.00023  22934565.53124      2957.46924        26.00024
G07  20962720.81027      -477.29027        43.00027                                                
G17  22462348.34026      2311.47726        37.00026                                                
G30  21034889.84927      1511.15927        43.00027  21034902.14025      1128.33925        35.00025
J03  38404439.46024       680.36024        28.00024  38404419.97324       509.77624        25.00024
G08  24090606.62024      -615.66724        24.00024  24090613.21623      -460.13323        21.00023
G02  21290845.15526      -701.97626        38.00026                                                
G14  22066615.70024      4053.68324        28.00024                                                
R09  21355971.16925      5080.99325        33.00025
R15  21908563.31724     -1580.33324        29.00024
R20  22001147.32325      4343.87225        30.00025
R19  19634012.45622       337.71822        16.00022
J02  38606704.93423      2586.33723        19.00023                                                
G19  24661154.53822      3384.32222        14.00022                                                
G21  22397678.61023     -1800.83823        21.00023                                                
R18  21458733.72824     -1866.57824        25.00024
G22  24071386.32622      3974.97022        14.00022                                                
C06  36676080.17826       163.06926        36.00026
R16  19282160.43825      1743.80525        35.00025
C07  36828847.22027      1494.17627        42.00027
E25  24677883.85722       888.94322        14.00022
C08  39959376.89922      3314.11722        17.00022
E02  24055214.32226      2762.42526        39.00026
C09  36408553.78326       570.30126        40.00026
C29  25893164.53524      3665.68524        24.00024
C10  37486331.05325      1499.68225        32.00025
C27  22569643.46125      -310.88225        31.00025
E03  28119689.84421       -72.31221        11.00021
C28  25904156.72521     -1118.97621        12.00021
E08  28174626.51223       -53.51023        18.00023
C30  22320580.08427      1887.11627        44.00027
C02  37150599.77526      1505.55026        38.00026
C16  36957106.52823       128.32723        23.00023
E36  23593254.53025       798.57825        34.00025
C01  37439740.60725      1533.26025        33.00025
C39  37649843.85527       -66.35427        44.00027
C40  37057263.29026      1334.41626        37.00026
C03  36174019.84723      1509.07223        20.00023
> 2024 11 28 12 18 08.0000230  0 38                      
G03  22934016.31124      3960.83324        27.00024  22934052.58624      2956.16124        25.00024
G07  20963048.78327      -478.31027        42.00027                                                
G17  22462148.37826      2310.16126        37.00026                                                
G30  21034843.68127      1510.41427        45.00027  21034855.37326      1128.43726        37.00026
J03  38404548.58424       679.79124        25.00024  38404529.69724       508.26024        26.00024
G08  24090963.67324      -617.17224        26.00024  24090970.26823      -461.15323        21.00023
G02  21291215.39825      -703.88725        35.00025                                                
G14  22066089.86424      4053.14624        29.00024                                                
R09  21355262.16025      5080.15625        35.00025
R15  21909096.64824     -1583.66024        29.00024
R20  22000577.11725      4342.15925        30.00025
R19  19634193.83021       334.34421        12.00021
J02  38606446.51323      2585.79723        23.00023                                                
G19  24660747.42022      3384.72622        14.00022                                                
G21  22398261.40623     -1801.65923        21.00023                                                
R18  21459323.12023     -1861.96323        19.00023
G22  24070868.28522      3973.46622        15.00022                                                
C06  36676288.53426       162.29626        37.00026
R16  19282074.69726      1742.76226        38.00026
C07  36828800.15227      1491.40127        43.00027
E25  24677953.40822       891.44122        14.00022
C08  39958980.87322      3310.05622        15.00022
E02  24054927.12026      2760.85826        39.00026
C09  36408682.09426       568.34726        38.00026
C29  25892701.35623      3663.71623        22.00023
C10  37486283.38625      1498.72725        35.00025
C27  22569941.75425      -311.63325        30.00025
E03  28119944.66721       -67.78021         9.00021
C28  25904616.30722     -1112.68022        13.00022
E08  28174610.92321       -45.35721         9.00021
C30  22320455.07027      1886.44527        44.00027
C02  37150550.00926      1503.96726        37.00026
C16  36957317.88124       127.35424        29.00024
E36  23593343.26825       798.08325        30.00025
C01  37439686.04525      1533.65825        33.00025
C39  37650098.07927       -67.53327        44.00027
C40  37057246.50225      1332.97825        35.00025
C03  36173967.38324      1521.26124        27.00024
> 2024 11 28 12 18 09.0000240  0 38                      
G03  22933564.22424      3959.55424        28.00024  22933599.59924      2956.07324        25.00024
G07  20963439.41326      -479.67026        40.00026                                                
G17  22462008.97525      2307.43625        35.00025                                                
G30  21034857.77127      1509.27427        46.00027  21034869.76326      1125.95226        39.00026
J03  38404718.86624       678.28624        27.00024  38404700.27924       507.38224        26.00024
G08  24091380.08524      -617.61724        27.00024  24091387.28023      -461.71723        21.00023
G02  21291648.59825      -703.75825        34.00025                                                
G14  22065621.88825      4052.19225        33.00025                                                
R09  21354612.80926      5079.50726        36.00026
R15  21909690.53724     -1585.08524        29.00024
R20  22000065.67124      4341.90324        29.00024
R19  19634424.97022       328.79422        17.00022
J02  38606252.24824      2584.33224        28.00024  38606281.92723      1927.72923        22.00023
G19  24660404.15722      3390.31122        13.00022                                                
G21  22398904.16124     -1805.87524        24.00024                                                
R18  21459963.77622     -1861.77322        14.00022
G22  24070411.40122      3975.05122        15.00022                                                
C06  36676558.34726       162.15726        37.00026
R16  19282048.91526      1741.08426        38.00026
C07  36828813.64327      1490.76627        42.00027
E25  24678080.82021       891.49421        12.00021
C08  39958646.30522      3309.70922        16.00022
E02  24054699.27826      2761.06226        38.00026
C09  36408868.26525       568.21225        34.00025
C29  25892298.43523      3663.39423        20.00023
C10  37486295.67826      1496.82826        36.00026
C27  22570300.90625      -312.76825        32.00025
E03  28120257.95121       -70.24221         9.00021
C28  25905134.04922     -1112.45522        15.00022
E08  28175042.92421       -50.70121        10.00021
C30  22320392.71427      1886.01227        44.00027
C02  37150559.90326      1502.32526        36.00026
C16  36957591.89225       127.70125        30.00025
E36  23593480.27324       798.24824        26.00024
C01  37439691.44125      1533.81925        33.00025
C39  37650409.86427       -68.30827        44.00027
C40  37057288.47325      1331.81925        33.00025
C03  36173973.08025      1527.32925        31.00025
> 2024 11 28 12 18 10.0000250  0 38                      
G03  22933113.63624      3958.73624        28.00024  22933146.01324      2954.48124        25.00024
G07  20963830.94226      -480.57326        40.00026                                                
G17  22461871.37025      2308.08325        34.00025                                                
G30  21034871.56127      1508.01627        46.00027  21034883.85326      1126.42626        40.00026
J03  38404885.85124       677.76524        28.00024  38404872.06024       506.88524        25.00024
G08  24091794.69824      -618.45124        27.00024  24091804.59123      -462.39023        21.00023
G02  21292083.59725      -705.10325        35.00025                                                
G14  22065152.41325      4051.65625        34.00025                                                
R09  21353963.75925      5079.10425        35.00025
R15  21910279.32924     -1586.26324        27.00024
R20  21999552.42724      4339.65124        27.00024
R19  19634661.50723       327.90123        23.00023
J02  38606058.28224      2582.67624        28.00024  38606081.66623      1918.76023        19.00023
G19  24660057.89721      3398.28721         9.00021                                                
G21  22399549.01524     -1806.85524        25.00024                                                
R18  21460608.63021     -1843.58021        11.00021
G22  24069953.91822      3977.00022        15.00022                                                
C06  36676829.35926       160.80626        37.00026
R16  19282029.12926      1739.39226        38.00026
C07  36828825.63526      1491.51826        41.00026
E25  24678209.43122       888.77622        14.00022
C08  39958311.73622      3310.50122        14.00022
E02  24054473.23526      2760.23126        37.00026
C09  36409058.63325       567.23725        33.00025
C29  25891894.31523      3668.41623        18.00023
C10  37486307.36926      1496.41826        36.00026
C27  22570660.35725      -313.67525        34.00025
E03  28120575.13121       -72.05421         9.00021
C28  25905649.39222     -1112.26022        16.00022
E08  28175373.59521       -53.12221        11.00021
C30  22320330.65727      1884.92727        44.00027
C02  37150570.99526      1502.26426        36.00026
C16  36957867.70125       127.00025        31.00025
E36  23593616.97924       794.54424        26.00024
C01  37439696.83725      1533.32725        33.00025
C39  37650722.24727       -68.67927        44.00027
C40  37057332.24325      1331.19025        33.00025
C03  36173979.37525      1529.11125        32.00025
> 2024 11 28 12 18 11.0000261  0 38                      
G03  22932691.22825      3958.19125        30.00025  22932722.70623      2957.39223        23.00023
G07  20964252.75026      -482.54626        40.00026                                                
G17  22461762.84525      2308.13225        34.00025                                                
G30  21034914.73227      1506.75527        46.00027  21034926.72326      1124.51326        39.00026
J03  38405084.61324       677.93724        28.00024  38405074.42024       506.46124        26.00024
G08  24092240.78924      -617.55124        27.00024  24092252.48123      -463.39423        21.00023
G02  21292545.27825      -708.05925        35.00025                                                
G14  22064712.61725      4050.97825        33.00025                                                
R09  21353343.48825      5077.16425        35.00025
R15  21910899.60024     -1586.21424        28.00024
R20  21999073.05924      4338.44724        28.00024
R19  19634925.92423       327.38923        23.00023
J02  38605895.19524      2582.10024        29.00024  38605922.77622      1924.32322        17.00022
G19  24659739.51821      3395.21021         9.00021                                                
G21  22400222.64924     -1806.64624        25.00024                                                
R18  21461282.26321     -1830.93521        10.00021
G22  24069526.41422      3978.78822        13.00022                                                
C06  36677128.25226       161.34626        37.00026
R16  19282027.93026      1738.63626        38.00026
C07  36828869.10426      1490.53226        41.00026
E25  24678367.12222       886.44222        14.00022
C08  39958010.14522      3307.66122        15.00022
E02  24054279.56926      2758.89226        38.00026
C09  36409278.98125       566.63425        33.00025
C29  25891523.17123      3664.24823        18.00023
C10  37486349.34026      1496.04626        36.00026
C27  22571049.78725      -314.47125        34.00025
E03  28120920.19221       -66.00821         9.00021
C28  25906194.71522     -1110.63922        17.00022
E08  28175720.75421       -54.49621        11.00021
C30  22320299.47827      1883.98127        44.00027
C02  37150613.56526      1502.48126        36.00026
C16  36958173.48925       126.30925        31.00025
E36  23593783.36424       794.81924        25.00024
C01  37439732.81225      1532.53925        33.00025
C39  37651064.61027       -69.06827        44.00027
C40  37057405.99225      1331.25725        33.00025
C03  36174015.35025      1530.78525        31.00025
> 2024 11 28 12 18 12.0000268  0 38                      
G03  22932149.20325      3957.66025        30.00025  22932178.88323      2956.21623        23.00023
G07  20964559.13827      -482.41327        42.00027                                                
G17  22461534.40326      2307.06426        36.00026                                                
G30  21034837.68527      1505.66627        47.00027  21034849.37726      1124.97926        40.00026
J03  38405165.25724       678.09724        25.00024  38405156.86324       504.80124        25.00024
G08  24092567.56324      -620.51524        26.00024  24092580.75323      -460.53923        21.00023
G02  21292894.53625      -707.81025        35.00025                                                
G14  22064152.90525      4050.30325        32.00025                                                
R09  21352600.90225      5076.33825        35.00025
R15  21911402.65224     -1586.30424        26.00024
R20  21998473.47424      4337.33724        28.00024
R19  19635074.92024       327.46124        25.00024
J02  38605612.19124      2580.92324        27.00024  38605641.27122      1925.86922        17.00022
G19  24659304.81921      3391.45721         9.00021                                                
G21  22400778.76424     -1806.68524        25.00024                                                
R18  21461830.28421     -1822.54821        10.00021
G22  24068976.59421      3976.77621        11.00021                                                
C06  36677305.43026       159.59226        38.00026
R16  19281909.51226      1736.97026        38.00026
C07  36828793.55727      1489.82927        42.00027
E25  24678403.09722       887.84222        13.00022
C08  39957586.83822      3306.43422        14.00022
E02  24053963.58826      2758.52226        38.00026
C09  36409380.31125       566.07725        34.00025
C29  25891031.81223      3660.88023        18.00023
C10  37486272.29425      1495.30525        35.00025
C27  22571320.80025      -314.85725        35.00025
E03  28121145.93621       -68.95521         9.00021
C28  25906619.22122     -1110.80122        17.00022
E08  28175947.39821       -50.28921        12.00021
C30  22320146.58427      1883.02727        44.00027
C02  37150535.32026      1501.84926        37.00026
C16  36958359.96025       125.63325        32.00025
E36  23593840.02424       793.95424        26.00024
C01  37439648.27125      1531.44425        34.00025
C39  37651287.65627       -70.06627        45.00027
C40  37057360.12325      1330.19925        34.00025
C03  36173931.10925      1531.95025        31.00025
> 2024 11 28 12 18 13.0000278  0 38                      
G03  22931727.99524      3957.24924        28.00024  22931756.17624      2954.33224        25.00024
G07  20964979.44726      -483.80826        41.00026                                                
G17  22461426.77826      2306.42526        37.00026                                                
G30  21034880.85527      1504.27727        47.00027  21034892.24726      1123.15626        40.00026
J03  38405368.81623       675.25323        23.00023  38405358.92324       504.83724        27.00024
G08  24093015.15324      -621.15224        27.00024  24093028.64324      -463.05924        24.00024
G02  21293359.21426      -708.77326        37.00026                                                
G14  22063711.01124      4049.60324        28.00024                                                
R09  21351977.93325      5075.96025        34.00025
R15  21912024.12123     -1591.38823        22.00023
R20  21997993.20624      4335.80024        28.00024
R19  19635341.13624       327.40424        25.00024
J02  38605456.59924      2579.88924        26.00024  38605479.38322      1926.02122        16.00022
G19  24658990.93621      3385.25621         9.00021                                                
G21  22401454.19623     -1806.44023        23.00023                                                
R18  21462494.32421     -1834.04221        10.00021
G22  24068547.89121      3972.13721         9.00021                                                
C06  36677609.41926       160.00726        37.00026
R16  19281909.81226      1736.01026        37.00026
C07  36828836.12726      1489.67526        41.00026
E25  24678560.48821       885.33721        11.00021
C08  39957282.54922      3304.18222        14.00022
E02  24053770.52126      2757.67526        38.00026
C09  36409602.15725       565.30125        35.00025
C29  25890660.66923      3659.16023        19.00023
C10  37486315.46425      1495.27525        35.00025
C27  22571711.72925      -315.68225        35.00025
E03  28121490.99721       -73.96021        10.00021
C28  25907164.24322     -1110.83522        17.00022
E08  28176293.95821       -44.26421        12.00021
C30  22320115.70527      1882.53327        43.00027
C02  37150579.08926      1501.34126        38.00026
C16  36958669.04625       125.84425        31.00025
E36  23594025.89624       792.28524        29.00024
C01  37439685.14525      1529.78625        32.00025
C39  37651629.41927       -70.54827        45.00027
C40  37057433.87225      1329.47025        35.00025
C03  36173966.18425      1532.80225        31.00025
> 2024 11 28 12 18 14.0000289  0 37                      
G03  22931279.50623      3955.44623        23.00023  22931303.18924      2954.73024        25.00024
G07  20965371.27526      -485.74226        39.00026                                                
G17  22461289.17326      2305.32626        36.00026                                                
G30  21034894.64527      1503.80727        45.00027  21034905.43826      1123.15526        40.00026
J03  38405539.39823       673.74423        22.00023  38405530.70424       502.36724        27.00024
G08  24093433.06324      -622.07724        27.00024  24093445.95423      -462.74123        19.00023
G02  21293793.31426      -708.60026        39.00026                                                
G14  22063240.63623      4048.51823        23.00023                                                
R09  21351327.38425      5076.07425        35.00025
R15  21912621.30823     -1589.66723        21.00023
R20  21997487.45624      4335.52624        27.00024
R19  19635577.07324       324.90124        26.00024
J02  38605268.02924      2581.10124        26.00024  38605288.11522      1927.18522        16.00022
G21  22402102.64723     -1807.37223        18.00023                                                
R18  21463146.07322     -1856.01722        14.00022
G22  24068085.61121      3966.30721         9.00021                                                
C06  36677882.83025       159.25425        35.00025
R16  19281887.92725      1734.23525        35.00025
C07  36828850.21825      1490.51825        33.00025
E25  24678686.10121       884.15621        12.00021
C08  39956947.38122      3302.21622        14.00022
E02  24053549.57426      2758.31626        40.00026
C09  36409795.82326       564.37126        36.00026
C29  25890257.74823      3658.30723        20.00023
C10  37486328.05525      1495.08725        31.00025
C27  22572073.27926      -316.41426        36.00026
E03  28121807.27821       -81.58121        10.00021
C28  25907679.58722     -1111.17722        16.00022
E08  28176607.84021       -47.72621        12.00021
C30  22320055.74727      1882.47427        43.00027
C02  37150588.38325      1503.69525        30.00025
C16  36958947.25325       124.10625        32.00025
E36  23594189.88225       790.70725        33.00025
C01  37439691.44125      1528.80125        30.00025
C39  37651941.50327       -71.01127        43.00027
C40  37057475.54425      1329.28625        32.00025
C03  36173971.58125      1532.77125        35.00025
> 2024 11 28 12 18 15.0000296  0 37                      
G03  22930738.98025      3954.84625        30.00025  22930759.06623      2956.42323        23.00023
G07  20965678.26326      -484.05426        37.00026                                                
G17  22461060.13225      2304.84725        34.00025                                                
G30  21034816.99927      1503.07527        44.00027  21034829.29126      1122.44226        39.00026
J03  38405616.74524       675.74924        29.00024  38405610.44924       503.94024        25.00024
G08  24093760.13724      -621.90924        28.00024  24093774.22723      -465.27323        20.00023
G02  21294134.17826      -710.71326        37.00026                                                
G14  22062680.32425      4047.72925        31.00025                                                
R09  21350585.09825      5074.32925        33.00025
R15  21913130.35624     -1591.78624        27.00024
R20  21996890.57024      4334.11124        28.00024
R19  19635722.47224       324.49524        28.00024
J02  38604985.32524      2577.92624        26.00024  38605007.50922      1928.05522        16.00022
G21  22402653.06623     -1806.20423        19.00023                                                
R18  21463710.88222     -1869.01322        15.00022
G22  24067536.69121      3966.51321         9.00021                                                
C06  36678061.20725       159.62925        35.00025
R16  19281772.80625      1733.87725        33.00025
C07  36828773.77026      1490.12326        38.00026
E25  24678725.97422       884.69422        15.00022
C08  39956523.47422      3301.95922        15.00022
E02  24053231.49426      2757.92026        39.00026
C09  36409899.25126       563.75426        36.00026
C29  25889764.58924      3656.91624        24.00024
C10  37486251.60825      1494.20125        30.00025
C27  22572339.19526      -315.37926        36.00026
E03  28122032.12221       -83.49221        10.00021
C28  25908103.79322     -1111.69422        15.00022
E08  28176830.88621       -44.60321        12.00021
C30  22319902.55327      1881.91927        42.00027
C02  37150508.33825      1502.68425        31.00025
C16  36959138.52125       123.56425        34.00025
E36  23594266.32926       790.17926        38.00026
C01  37439608.39824      1527.13724        28.00024
C39  37652164.24927       -70.26927        42.00027
C40  37057430.27526      1329.92626        36.00026
C03  36173887.03926      1532.22826        38.00026
> 2024 11 28 12 18 16.0000307  0 37                      
G03  22930321.36925      3954.18325        30.00025  22930336.65824      2954.96424        26.00024
G07  20966099.47125      -484.95025        35.00025                                                
G17  22460952.20626      2303.78226        36.00026                                                
G30  21034862.56827      1501.00127        45.00027  21034874.85926      1121.23126        40.00026
J03  38405813.40925       675.78525        32.00025  38405806.81324       504.28624        24.00024
G08  24094207.42724      -622.11124        28.00024  24094222.71723      -461.86623        20.00023
G02  21294600.95526      -711.57626        40.00026                                                
G14  22062239.62925      4046.70725        35.00025                                                
R09  21349961.22925      5073.50425        35.00025
R15  21913750.92624     -1588.61324        24.00024
R20  21996410.60225      4331.70025        31.00025
R19  19635991.08624       323.43324        26.00024
J02  38604824.33624      2576.87624        27.00024  38604845.32222      1926.44622        16.00022
G19  24657999.82223      3367.38223        19.00023                                                
G21  22403326.10024     -1810.89924        24.00024                                                
R18  21464396.80722     -1878.32622        17.00022
C06  36678359.80025       158.26825        34.00025
R16  19281781.50025      1732.88825        34.00025
C07  36828818.44025      1488.60625        33.00025
E25  24678888.46122       878.90822        15.00022
C08  39956220.08422      3303.70422        17.00022
E02  24053035.13026      2755.57526        37.00026
C09  36410121.09825       562.85725        35.00025
C29  25889389.84822      3657.02422        17.00022
C10  37486293.57926      1493.34826        36.00026
C27  22572726.52724      -317.29324        26.00024
E03  28122378.38321       -86.57921        11.00021
C28  25908647.91622     -1113.39022        15.00022
E08  28177172.34921       -45.94421        12.00021
C30  22319873.77326      1879.70526        41.00026
C02  37150550.60925      1501.64625        35.00025
C16  36959447.60726       123.11926        38.00026
E36  23594459.09626       788.99826        38.00026
C01  37439644.07424      1532.05824        28.00024
C39  37652512.90826       -71.83426        40.00026
C40  37057505.52326      1328.32026        37.00026
C03  36173926.31226      1528.53426        38.00026
> 2024 11 28 12 18 17.0000317  0 37                      
G03  22929870.78125      3953.15925        30.00025  22929885.47124      2953.81324        29.00024
G07  20966480.50825      -487.01725        31.00025                                                
G17  22460813.10326      2302.66926        38.00026                                                
G30  21034876.95827      1500.04427        45.00027  21034890.14926      1120.16326        41.00026
J03  38405977.99525       675.32725        31.00025  38405972.59823       504.81923        22.00023
G08  24094626.23724      -622.72024        26.00024  24094640.02823      -464.04123        21.00023
G02  21295034.75426      -712.14826        40.00026                                                
G14  22061768.65525      4046.62325        34.00025                                                
R09  21349304.68425      5074.04325        33.00025
R15  21914348.11223     -1594.05723        18.00023
R20  21995897.95724      4331.58224        27.00024
R19  19636226.12424       323.40224        28.00024
J02  38604633.36824      2576.23224        28.00024  38604653.75422      1924.87422        17.00022
G19  24657651.16321      3367.01521        12.00021                                                
G21  22403968.25624     -1810.94224        27.00024                                                
R18  21465053.95223     -1882.29023        18.00023
C06  36678629.61326       157.23726        39.00026
R16  19281760.21525      1730.79325        35.00025
C07  36828832.83026      1488.21426        37.00026
E25  24679023.36822       875.65122        14.00022
C08  39955885.21623      3302.49123        19.00023
E02  24052809.08725      2756.50325        33.00025
C09  36410313.56425       562.05825        33.00025
C29  25888982.73022      3657.36122        17.00022
C10  37486306.77025      1492.56425        35.00025
C27  22573087.77725      -319.53725        32.00025
E03  28122692.86521       -85.05821        11.00021
C28  25909159.96222     -1116.85322        15.00022
E08  28177488.33122       -51.22422        14.00022
C30  22319814.71427      1879.30827        42.00027
C02  37150563.20026      1500.27826        37.00026
C16  36959728.81225       122.32425        31.00025
E36  23594614.38826       788.96826        38.00026
C01  37439649.47024      1529.20824        29.00024
C39  37652827.09027       -72.32027        43.00027
C40  37057551.09125      1327.45425        32.00025
C03  36173934.70626      1525.04426        39.00026
> 2024 11 28 12 18 18.0000326  0 39                      
G03  22929421.39224      3953.24224        29.00024  22929434.28324      2951.79024        26.00024
G07  20966869.33826      -488.64426        36.00026                                                
G17  22460674.29926      2303.44226        37.00026                                                
G30  21034888.94927      1500.06127        44.00027  21034903.93926      1120.13826        40.00026
J03  38406144.67924       674.36624        29.00024  38406138.98323       505.02623        23.00023
G08  24095044.74824      -623.66524        27.00024  24095059.43724      -462.51824        25.00024
G02  21295472.45126      -710.98926        37.00026                                                
G14  22061297.68125      4047.68525        33.00025                                                
R09  21348650.23724      5073.28124        28.00024
R15  21914945.59923     -1596.84023        18.00023
R20  21995387.41024      4330.67724        24.00024
R19  19636460.86124       323.10924        27.00024
J02  38604443.60024      2576.92524        28.00024  38604463.38622      1925.19522        16.00022
G19  24657298.60721      3369.83121         9.00021                                                
G21  22404609.21224     -1812.25024        26.00024                                                
R18  21465715.29523     -1880.67723        20.00023
G22  24066178.63123      3974.26023        19.00023                                                
C06  36678899.12726       157.14826        38.00026
R16  19281738.93025      1730.48125        33.00025
C07  36828846.92026      1488.33426        38.00026
E25  24679155.27622       879.35622        15.00022
C08  39955549.74823      3302.85723        23.00023
E02  24052584.24226      2756.69826        36.00026
C09  36410505.43225       562.18325        34.00025
C29  25888579.21022      3654.15722        16.00022
C10  37486319.96125      1493.50225        32.00025
C27  22573448.42725      -320.57325        30.00025
E03  28123010.34521       -87.85521        10.00021
C28  25909674.70522     -1118.35722        16.00022
E08  28177805.51122       -54.74622        15.00022
C30  22319752.05727      1879.41927        43.00027
C02  37150575.19226      1499.04426        36.00026
C16  36960006.72025       121.79025        34.00025
E36  23594767.58226       788.18426        37.00026
E30  27708702.26523      3644.05723        18.00023
C01  37439656.36525      1527.08125        31.00025
C39  37653140.07427       -71.67027        44.00027
C40  37057596.66025      1328.57525        33.00025
C03  36173941.00226      1527.02826        38.00026
> 2024 11 28 12 18 19.0000335  0 39                      
G03  22928910.24624      3953.58424        29.00024  22928922.83724      2954.14224        25.00024
G07  20967200.60926      -488.61626        39.00026                                                
G17  22460473.13826      2302.50326        38.00026                                                
G30  21034843.38127      1498.85227        44.00027  21034859.27026      1118.70226        39.00026
J03  38406253.20425       674.52725        30.00025  38406246.60924       504.95924        25.00024
G08  24095401.50124      -622.81524        26.00024  24095417.68924      -463.88224        26.00024
G02  21295850.19026      -713.04726        37.00026                                                
G14  22060767.34925      4047.10525        32.00025                                                
R09  21347934.33324      5071.37824        26.00024
R15  21915490.62223     -1595.71523        19.00023
R20  21994811.20921      4331.51921        10.00021
R19  19636636.53924       320.86224        26.00024
J02  38604192.67424      2576.68124        28.00024  38604213.05922      1925.27122        16.00022
G19  24656897.18521      3374.86521         9.00021                                                
G21  22405189.31024     -1812.53424        25.00024                                                
R18  21466312.48123     -1879.30023        19.00023
G22  24065680.07621      3969.59821        11.00021                                                
C06  36679107.48226       156.81826        39.00026
R16  19281657.68625      1729.93525        35.00025
C07  36828798.65326      1488.81026        39.00026
E25  24679228.72522       883.28222        14.00022
C08  39955154.92223      3304.66723        23.00023
E02  24052299.73926      2755.56726        37.00026
C09  36410638.24025       562.17125        35.00025
C29  25888118.42922      3652.91022        16.00022
C10  37486274.09225      1493.94325        31.00025
C27  22573750.01823      -319.33723        22.00023
E03  28123267.26721       -87.99821        10.00021
C28  25910130.09022     -1118.45622        16.00022
E08  28178060.03522       -54.96322        16.00022
C30  22319630.94127      1878.23727        43.00027
C02  37150527.52526      1499.04426        37.00026
C16  36960221.67124       122.42924        27.00024
E36  23594857.52026       787.48226        36.00026
E30  27708268.46521      3648.57321        11.00021
C01  37439602.40325      1525.60225        32.00025
C39  37653393.99827       -72.50627        44.00027
C40  37057581.67025      1329.32525        34.00025
C03  36173885.54026      1529.02826        37.00026
> 2024 11 28 12 18 20.0000345  0 39                      
G03  22928458.45924      3953.83724        28.00024  22928471.35023      2952.29523        23.00023
G07  20967591.83826      -489.35126        40.00026                                                
G17  22460335.23326      2302.86126        38.00026                                                
G30  21034858.37127      1497.99427        44.00027  21034873.06026      1118.54826        39.00026
J03  38406421.38825       673.72525        30.00025  38406417.19124       505.34424        24.00024
G08  24095818.21224      -622.45024        26.00024  24095835.90024      -462.88624        25.00024
G02  21296288.18626      -713.49526        38.00026                                                
G14  22060297.57425      4046.96125        33.00025                                                
R09  21347277.18824      5071.66324        26.00024
R15  21916089.90723     -1598.58923        18.00023
R20  21994291.36921      4327.17121         9.00021
R19  19636876.37324       320.09524        25.00024
J02  38604001.40624      2576.36524        27.00024  38604023.29122      1926.85122        16.00022
G19  24656555.42221      3374.45721        10.00021                                                
G21  22405832.06524     -1813.19424        25.00024                                                
R18  21466969.62623     -1876.55523        19.00023
G22  24065227.39022      3969.25222        13.00022                                                
C06  36679373.09826       156.41126        39.00026
R16  19281634.90225      1727.90425        35.00025
C07  36828812.74326      1488.20826        40.00026
E25  24679360.33421       880.30221        11.00021
C08  39954819.15423      3305.99123        22.00023
E02  24052076.69426      2755.06526        38.00026
C09  36410831.60625       561.58225        35.00025
C29  25887715.20822      3651.85922        16.00022
C10  37486287.28325      1494.11925        31.00025
C27  22574109.16924      -319.39824        24.00024
E03  28123584.74721       -86.41721        12.00021
C28  25910646.63322     -1120.37622        16.00022
E08  28178371.81922       -51.55922        16.00022
C30  22319569.48427      1877.81327        43.00027
C02  37150539.51726      1498.94226        37.00026
C16  36960494.48223       122.24123        23.00023
E36  23595005.01826       786.97326        37.00026
E30  27707892.22523      3643.33123        19.00023
C01  37439611.09725      1524.17125        32.00025
C39  37653708.48027       -73.01227        44.00027
C40  37057627.23825      1328.71625        35.00025
C03  36173892.43526      1527.69726        37.00026
> 2024 11 28 12 18 21.0000355  0 39                      
G03  22928003.97324      3953.30524        28.00024  22928018.36323      2949.69023        22.00023
G07  20967993.56026      -490.79226        41.00026                                                
G17  22460195.83026      2302.37126        37.00026                                                
G30  21034873.66027      1496.42427        45.00027  21034886.55126      1117.60226        38.00026
J03  38406589.87125       672.99925        30.00025  38406587.47324       504.91724        24.00024
G08  24096239.12124      -622.51324        27.00024  24096254.11024      -464.66224        25.00024
G02  21296724.08526      -714.81026        37.00026                                                
G14  22059827.79925      4045.82925        32.00025                                                
R09  21346615.54624      5070.99424        25.00024
R15  21916680.19823     -1601.59323        18.00023
R20  21993782.92122      4328.77522        16.00022
R19  19637114.40924       316.51824        26.00024
J02  38603812.53724      2577.53624        26.00024  38603832.92322      1926.15622        15.00022
G19  24656214.25821      3376.32421        12.00021                                                
G21  22406470.02424     -1813.29024        25.00024                                                
R18  21467618.97723     -1876.44623        18.00023
G22  24064769.60722      3969.51422        15.00022                                                
C06  36679643.81126       156.33626        38.00026
R16  19281613.61725      1727.07225        33.00025
C07  36828826.53426      1487.41526        40.00026
E25  24679491.34421       884.27121         9.00021
C08  39954483.38723      3307.70923        21.00023
E02  24051852.14926      2754.63226        38.00026
C09  36411024.97225       560.82425        35.00025
C29  25887311.68722      3655.74522        16.00022
C10  37486300.77425      1494.15425        30.00025
C27  22574468.92024      -319.09624        24.00024
E03  28123901.02821       -93.11921        10.00021
C28  25911163.17522     -1123.13022        15.00022
E08  28178687.50122       -55.98322        16.00022
C30  22319509.52527      1877.33627        43.00027
C02  37150551.80826      1498.82126        36.00026
C16  36960770.29124       121.44324        28.00024
E36  23595151.31726       785.89326        37.00026
E30  27707504.59423      3641.22123        18.00023
C01  37439619.19125      1523.13125        31.00025
C39  37654021.76327       -73.72027        44.00027
C40  37057672.80726      1328.05826        36.00026
C03  36173899.03126      1527.44126        37.00026
> 2024 11 28 12 18 22.0000363  0 39                      
G03  22927492.22724      3950.88124        26.00024  22927506.91722      2949.17022        17.00022
G07  20968331.12626      -492.13126        40.00026                                                
G17  22459996.16826      2300.01926        37.00026                                                
G30  21034828.09227      1494.85827        45.00027  21034841.58226      1117.21426        38.00026
J03  38406698.99625       673.79125        30.00025  38406699.59524       500.16924        24.00024
G08  24096600.67024      -623.43824        26.00024  24096612.96224      -465.27424        25.00024
G02  21297100.92426      -716.09926        36.00026                                                
G14  22059297.46625      4044.49625        32.00025                                                
R09  21345893.94523      5071.53823        21.00023
R15  21917241.41022     -1596.18622        17.00022
R20  21993216.01323      4328.67023        18.00023
R19  19637296.38324       314.39824        25.00024
J02  38603562.21024      2576.67124        26.00024  38603581.69622      1928.62222        13.00022
G19  24655812.83621      3377.71421        12.00021                                                
G21  22407053.71924     -1814.87524        25.00024                                                
R18  21468209.56822     -1863.11522        17.00022
G22  24064252.16522      3966.64822        16.00022                                                
C06  36679853.96526       155.01426        39.00026
R16  19281529.67525      1725.73025        34.00025
C07  36828781.26526      1486.45426        40.00026
E25  24679562.09521       894.73621         9.00021
C08  39954085.26223      3308.37423        22.00023
E02  24051570.34426      2753.24126        38.00026
C09  36411158.67925       560.39925        34.00025
C29  25886847.00922      3654.51422        17.00022
C10  37486254.30624      1493.99124        28.00024
C27  22574770.21224      -318.92024        27.00024
E03  28124158.55021       -92.72121         9.00021
C28  25911617.96021     -1130.24721        12.00021
E08  28178940.52522       -59.48522        15.00022
C30  22319389.60827      1875.57927        44.00027
C02  37150504.74126      1498.03326        36.00026
C16  36960985.54224       119.97024        29.00024
E36  23595241.25426       784.61426        38.00026
E30  27707055.20523      3640.62123        18.00023
C01  37439567.32725      1521.93325        30.00025
C39  37654275.98727       -74.85227        44.00027
C40  37057659.31626      1327.50026        36.00026
C03  36173844.46926      1525.97726        39.00026
> 2024 11 28 12 18 23.0000373  0 39                      
G03  22927040.44024      3950.93124        25.00024  22927055.13023      2951.10323        18.00023
G07  20968725.65326      -492.92026        41.00026                                                
G17  22459859.46326      2300.09126        36.00026                                                
G30  21034843.68127      1494.06227        46.00027  21034856.27226      1116.23626        37.00026
J03  38406868.97825       672.98625        30.00025  38406873.17523       500.27923        23.00023
G08  24097018.58124      -622.45524        26.00024  24097032.37224      -466.73524        25.00024
G02  21297536.22226      -716.24926        36.00026                                                
G14  22058826.79225      4044.08925        32.00025                                                
R09  21345236.80023      5070.38123        23.00023
R15  21917843.69322     -1596.18422        16.00022
R20  21992708.76523      4328.64523        18.00023
R19  19637536.81624       312.97124        26.00024
J02  38603371.84224      2575.10824        27.00024  38603391.32822      1924.86622        13.00022
G19  24655471.37221      3386.55121        12.00021                                                
G21  22407695.27524     -1814.37624        26.00024                                                
R18  21468859.21822     -1846.06322        14.00022
G22  24063795.88122      3964.68422        16.00022                                                
C06  36680123.77926       155.33526        39.00026
R16  19281506.89125      1723.98225        33.00025
C07  36828795.05626      1487.33326        40.00026
E25  24679691.60521       900.29921         9.00021
C08  39953747.39623      3307.72023        21.00023
E02  24051346.10026      2753.82426        38.00026
C09  36411352.04625       559.26825        34.00025
C29  25886442.58922      3653.35822        17.00022
C10  37486268.09724      1492.56724        27.00024
C27  22575133.26024      -320.49024        25.00024
E03  28124474.53121       -85.34921         9.00021
C28  25912133.30321     -1130.15621        10.00021
E08  28179255.00822       -57.36422        14.00022
C30  22319328.75027      1875.40527        45.00027
C02  37150517.03225      1497.79025        35.00025
C16  36961262.55025       120.67625        32.00025
E36  23595391.15126       783.58326        38.00026
E30  27706666.37423      3640.41823        18.00023
C01  37439574.52225      1521.08525        31.00025
C39  37654589.87027       -74.29827        44.00027
C40  37057704.58525      1326.44425        35.00025
C03  36173852.56326      1524.21426        37.00026
> 2024 11 28 12 18 24.0000384  0 39                      
G03  22926618.33224      3949.86724        28.00024  22926632.42322      2950.36922        17.00022
G07  20969148.66027      -493.63727        42.00027                                                
G17  22459750.63826      2300.25726        36.00026                                                
G30  21034888.35027      1493.14727        45.00027  21034901.24126      1116.29326        37.00026
J03  38407071.63825       672.43225        30.00025  38407075.83523       499.85623        23.00023
G08  24097465.87224      -623.95224        26.00024  24097482.06024      -466.06124        25.00024
G02  21298000.60126      -717.53326        37.00026                                                
G14  22058386.69725      4043.70425        31.00025                                                
R09  21344612.63223      5070.17923        22.00023
R15  21918479.25322     -1596.22222        15.00022
R20  21992231.79524      4328.40424        25.00024
R19  19637811.12624       313.89324        24.00024
J02  38603211.45324      2573.83824        25.00024  38603230.93921      1925.47321        12.00021
G19  24655154.49221      3388.69221        12.00021                                                
G21  22408370.40824     -1814.84424        24.00024                                                
R18  21469533.15121     -1828.66021        10.00021
G22  24063370.77522      3963.51322        16.00022                                                
C06  36680425.07026       154.40326        40.00026
R16  19281515.58525      1722.95325        34.00025
C07  36828840.62426      1486.52626        41.00026
E25  24679848.69621       906.99321         9.00021
C08  39953439.80923      3306.07123        22.00023
E02  24051150.93526      2752.18926        38.00026
C09  36411576.29026       559.39326        37.00026
C29  25886071.74522      3651.99622        17.00022
C10  37486311.26724      1492.57124        28.00024
C27  22575525.38924      -321.51224        28.00024
E03  28124821.99121       -82.63221         9.00021
C28  25912677.12721     -1125.63121        10.00021
E08  28179601.26821       -54.64521        11.00021
