Fix,GPS,22.3039898875,114.1800063134,91.46424447465688,0.2561587,4.9,239.70322,1732796264560,0.15,5.0,513309422089194
Fix,GPS,22.3039952284,114.1800127084,94.36323797795922,0.19605625,4.9,239.70322,1732796265000,0.15,5.0,513310813752214
Fix,GPS,22.3039984688,114.1800198289,95.2034919783473,0.06101716,4.9,239.70322,1732796266000,0.15,5.0,513311818889714
Fix,GPS,22.3040015727,114.1800253041,95.60303235985339,0.07817222,4.9,239.70322,1732796267000,0.15,5.0,513312820135547
Fix,GPS,22.3040040204,114.1800297246,95.79470382072031,0.21819136,4.9,239.70322,1732796268000,0.15,5.0,513313813880860
Fix,GPS,22.3040067241,114.1800346968,95.38800679985434,0.16895734,4.9,239.70322,1732796269000,0.15,5.0,513314824647526
Fix,GPS,22.3040072073,114.1800369864,95.47891554050148,0.022429956,4.9,239.70322,1732796270000,0.15,5.0,513315825739193
Fix,GPS,22.3040091930,114.1800382675,96.76675738487393,0.18618144,4.9,239.70322,1732796271000,0.15,5.0,513316826707942
Fix,GPS,22.3040088885,114.1800369083,96.84504970349371,0.07964037,4.9,239.70322,1732796272000,0.15,5.0,513317815951692
Fix,GPS,22.3040090355,114.1800352509,98.68995360843837,0.058671154,4.9,239.70322,1732796273000,0.15,5.0,513318831212630
Fix,GPS,22.3040109455,114.1800394940,100.48324741143733,0.09030002,4.9,239.70322,1732796274000,0.15,5.0,513319828321484
Fix,GPS,22.3040123032,114.1800465289,102.02023832499981,0.058902733,4.9,239.70322,1732796275000,0.15,5.0,513320820956900
Fix,GPS,22.3040121399,114.1800479995,101.88696228992194,0.30833286,4.9,239.70322,1732796276000,0.15,5.0,513321827703775
Fix,GPS,22.3040154843,114.1800481716,102.76643622294068,0.0721143,4.9,239.70322,1732796277000,0.15,5.0,513322827409504
Fix,GPS,22.3040158606,114.1800521106,102.49896018579602,0.26773444,4.9,239.70322,1732796278000,0.15,5.0,513323823142837
Fix,GPS,22.3040157945,114.1800565998,102.87202050257474,0.121793084,4.9,239.70322,1732796279000,0.15,5.0,513324827693879
Fix,GPS,22.3040173413,114.1800596969,103.02227456960827,0.10885211,4.9,239.70322,1732796280000,0.15,5.0,513325820837108
Fix,GPS,22.3040224563,114.1800642633,102.23575226776302,0.016158212,4.9,239.70322,1732796281000,0.15,5.0,513326823872003
Fix,GPS,22.3040266029,114.1800698895,101.26414629817009,0.024722788,4.9,239.70322,1732796282000,0.15,5.0,513327826403253
Fix,GPS,22.3040299565,114.1800816601,99.99897276330739,0.018221084,4.9,239.70322,1732796283000,0.15,5.0,513328835462107
Fix,GPS,22.3040342570,114.1800789876,99.05655706766993,0.05316225,4.9,239.70322,1732796284000,0.15,5.0,513329830340753
Fix,GPS,22.3040364116,114.1800829992,98.33015579823405,0.051204585,4.9,239.70322,1732796285000,0.15,5.0,513330827894919
Fix,GPS,22.3040385053,114.1800859616,98.00627406220883,0.10854665,4.9,239.70322,1732796286000,0.15,5.0,513331818850128
Fix,GPS,22.3040409359,114.1800848293,97.92882545851171,0.04613681,4.9,239.70322,1732796287000,0.15,5.0,513332814417836
Fix,GPS,22.3040456303,114.1800798830,98.7811657609418,0.007772221,4.9,239.70322,1732796288000,0.15,5.0,513333829288669
Fix,GPS,22.3040515608,114.1800898830,97.64397277589887,0.07414667,4.9,239.70322,1732796289000,0.15,5.0,513334826486065
Fix,GPS,22.3040552130,114.1800988888,96.83347414433956,0.08095456,4.9,239.70322,1732796290000,0.15,5.0,513335821113148
Fix,GPS,22.3040571632,114.1801009904,96.68094032630324,0.08376999,4.9,239.70322,1732796291000,0.15,5.0,513336825118877
Fix,GPS,22.3040620747,114.1800942813,97.3746990300715,0.05805402,4.9,239.70322,1732796292000,0.15,5.0,513337820765231
Fix,GPS,22.3040656383,114.1800903290,97.2905381154269,0.099844575,4.9,239.70322,1732796293000,0.15,5.0,513338828714189
Fix,GPS,22.3040674104,114.1800819014,97.95829251874238,0.0048208702,4.9,239.70322,1732796294000,0.15,5.0,513339826213668
Fix,GPS,22.3040688649,114.1800762715,98.70270714536309,0.105159275,4.9,239.70322,1732796295000,0.15,5.0,513340825635543
Fix,GPS,22.3040690007,114.1800710503,99.87845472153276,0.05685747,4.9,239.70322,1732796296000,0.15,5.0,513341827230334
Fix,GPS,22.3040704169,114.1800609609,102.65310133062303,0.16490349,4.9,239.70322,1732796297000,0.15,5.0,513342825662105
Fix,GPS,22.3040681356,114.1800665764,102.01862976048142,0.09700902,4.9,239.70322,1732796298000,0.15,5.0,513343820203251
Fix,GPS,22.3040683704,114.1800647596,102.47976024914533,0.03782869,4.9,239.70322,1732796299000,0.15,5.0,513344824180855
Fix,GPS,22.3040686038,114.1800621402,102.01282857730985,0.08469673,4.9,239.70322,1732796300000,0.15,5.0,513345824355855
Fix,GPS,22.3040680199,114.1800599904,101.58030774630606,0.061953176,4.9,239.70322,1732796301000,0.15,5.0,513346822961584
Fix,GPS,22.3040683663,114.1800568514,101.44976844452322,0.06939385,4.9,239.70322,1732796302000,0.15,5.0,513347817548563
Fix,GPS,22.3040672257,114.1800550191,101.15489345882088,0.17355771,4.9,239.70322,1732796303000,0.15,5.0,513348821632417
Fix,GPS,22.3040662455,114.1800540080,101.27660559583455,0.08276751,4.9,239.70322,1732796304000,0.15,5.0,513349824042833
Fix,GPS,22.3040657204,114.1800551073,101.84947003424168,0.15269426,4.9,239.70322,1732796305000,0.15,5.0,513350823608979
Fix,GPS,22.3040637590,114.1800551764,102.20631342753768,0.057267863,4.9,239.70322,1732796306000,0.15,5.0,513351832373562
Fix,GPS,22.3040620182,114.1800547039,102.38514491915703,0.056213226,4.9,239.70322,1732796307000,0.15,5.0,513352822869395
Fix,GPS,22.3040615755,114.1800530105,102.57441842183471,0.012770579,4.9,239.70322,1732796308000,0.15,5.0,513353824046999
Fix,GPS,22.3040616167,114.1800554397,102.75389440078288,0.0924692,4.9,239.70322,1732796309000,0.15,5.0,513354823577728
Fix,GPS,22.3040626470,114.1800562268,102.42968673165888,0.13475135,4.9,239.70322,1732796310000,0.15,5.0,513355830076686
Fix,GPS,22.3040646819,114.1800575970,102.54008797276765,0.21692847,4.9,239.70322,1732796311000,0.15,5.0,513356820994395
Fix,GPS,22.3040674811,114.1800581118,102.69539059884846,0.16781627,4.9,239.70322,1732796312000,0.15,5.0,513357826425124
Fix,GPS,22.3040701485,114.1800613270,102.40761728119105,0.11550112,4.9,239.70322,1732796313000,0.15,5.0,513358828276165
Fix,GPS,22.3040695153,114.1800601306,102.60174528881907,0.020857168,4.9,239.70322,1732796314000,0.15,5.0,513359816094915
Fix,GPS,22.3040696590,114.1800600753,102.7500571263954,0.031446338,4.9,239.70322,1732796315000,0.15,5.0,513360816557936
Fix,GPS,22.3040699920,114.1800644084,102.18810665979981,0.16560045,4.9,239.70322,1732796316000,0.15,5.0,513361827592831
Fix,GPS,22.3040686895,114.1800620843,101.90183873381466,0.17903776,4.9,239.70322,1732796317000,0.15,5.0,513362824403248
Fix,GPS,22.3040661777,114.1800625352,101.90742376446724,0.09895727,4.9,239.70322,1732796318000,0.15,5.0,513363835104810
Fix,GPS,22.3040661777,114.1800625352,101.90742376446724,0.0,4.9,239.70322,1732796319000,0.15,5.0,513364828885018
Fix,GPS,22.3040661777,114.1800625352,101.90742376446724,0.0,4.9,239.70322,1732796320000,0.15,5.0,513365817583977
Fix,GPS,22.3040661777,114.1800625352,101.90742376446724,0.0,4.9,239.70322,1732796321000,0.15,5.0,513366829395956
Fix,GPS,22.3040661777,114.1800625352,101.90742376446724,0.0,4.9,239.70322,1732796322000,0.15,5.0,513367829193351
Fix,GPS,22.3040661777,114.1800625352,101.90742376446724,0.0,4.9,239.70322,1732796323000,0.15,5.0,513368830936580
Fix,GPS,22.3040661777,114.1800625352,101.90742376446724,0.0,4.9,239.70322,1732796324000,0.15,5.0,513369828470434
Fix,GPS,22.3040661777,114.1800625352,101.90742376446724,0.0,4.9,239.70322,1732796325000,0.15,5.0,513370824630330
Fix,GPS,22.3040661777,114.1800625352,101.90742376446724,0.0,4.9,239.70322,1732796326000,0.15,5.0,513371828008455
Fix,GPS,22.3040661777,114.1800625352,101.90742376446724,0.0,4.9,239.70322,1732796327000,0.15,5.0,513372827294913
Fix,GPS,22.3040661777,114.1800625352,101.90742376446724,0.0,4.9,239.70322,1732796328000,0.15,5.0,513373828995955
Fix,GPS,22.3040661777,114.1800625352,101.90742376446724,0.0,4.9,239.70322,1732796329000,0.15,5.0,513374828557413
Fix,GPS,22.3040661777,114.1800625352,101.90742376446724,0.0,4.9,239.70322,1732796330000,0.15,5.0,513375817385538
Fix,GPS,22.3040661777,114.1800625352,101.90742376446724,0.0,4.9,239.70322,1732796331000,0.15,5.0,513376832253767
Fix,GPS,22.3040661777,114.1800625352,101.90742376446724,0.0,4.9,239.70322,1732796332000,0.15,5.0,513377826602204
Fix,GPS,22.3040661777,114.1800625352,101.90742376446724,0.0,4.9,239.70322,1732796333000,0.15,5.0,513378819186058
Fix,GPS,22.3040661777,114.1800625352,101.90742376446724,0.0,4.9,239.70322,1732796334000,0.15,5.0,513379830899599
Fix,GPS,22.3040661777,114.1800625352,101.90742376446724,0.0,4.9,239.70322,1732796335000,0.15,5.0,513380816412620
Fix,GPS,22.3040661777,114.1800625352,101.90742376446724,0.0,4.9,239.70322,1732796336000,0.15,5.0,513381833002203
Fix,GPS,22.3040661777,114.1800625352,101.90742376446724,0.0,4.9,239.70322,1732796337000,0.15,5.0,513382833577203
Fix,GPS,22.3040661777,114.1800625352,101.90742376446724,0.0,4.9,239.70322,1732796338000,0.15,5.0,513383823553766
Fix,GPS,22.3040661777,114.1800625352,101.90742376446724,0.0,4.9,239.70322,1732796339000,0.15,5.0,513384832246474
Fix,GPS,22.3040661777,114.1800625352,101.90742376446724,0.0,4.9,239.70322,1732796340000,0.15,5.0,513385815962619
Fix,GPS,22.3040661777,114.1800625352,101.90742376446724,0.0,4.9,239.70322,1732796341000,0.15,5.0,513386821424598
Fix,GPS,22.3040661777,114.1800625352,101.90742376446724,0.0,4.9,239.70322,1732796342000,0.15,5.0,513387822713661
Fix,GPS,22.3040661777,114.1800625352,101.90742376446724,0.0,4.9,239.70322,1732796343000,0.15,5.0,513388823641265
Fix,GPS,22.3040661777,114.1800625352,101.90742376446724,0.0,4.9,239.70322,1732796344000,0.15,5.0,513389831951160
Fix,GPS,22.3040661777,114.1800625352,101.90742376446724,0.0,4.9,239.70322,1732796345000,0.15,5.0,513390816118869
Fix,GPS,22.3040661777,114.1800625352,101.90742376446724,0.0,4.9,239.70322,1732796346000,0.15,5.0,513391826803764
Fix,GPS,22.3040661777,114.1800625352,101.90742376446724,0.0,4.9,239.70322,1732796347000,0.15,5.0,513392832474077
Fix,GPS,22.3040661777,114.1800625352,101.90742376446724,0.0,4.9,239.70322,1732796348000,0.15,5.0,513393828949076
Fix,GPS,22.3040661777,114.1800625352,101.90742376446724,0.0,4.9,239.70322,1732796349000,0.15,5.0,513394830141264
Fix,GPS,22.3040661777,114.1800625352,101.90742376446724,0.0,4.9,239.70322,1732796350000,0.15,5.0,513395816994389
Fix,GPS,22.3040661777,114.1800625352,101.90742376446724,0.0,4.9,239.70322,1732796351000,0.15,5.0,513396828006368
Fix,GPS,22.3040661777,114.1800625352,101.90742376446724,0.0,4.9,239.70322,1732796352000,0.15,5.0,513397827401680
Fix,GPS,22.3040661777,114.1800625352,101.90742376446724,0.0,4.9,239.70322,1732796353000,0.15,5.0,513398834956888
Fix,GPS,22.3040661777,114.1800625352,101.90742376446724,0.0,4.9,239.70322,1732796354000,0.15,5.0,513399830180846
Fix,GPS,22.3040661777,114.1800625352,101.90742376446724,0.0,4.9,239.70322,1732796355000,0.15,5.0,513400817931888
Fix,GPS,22.3040661777,114.1800625352,101.90742376446724,0.0,4.9,239.70322,1732796356000,0.15,5.0,513401830148554
Fix,GPS,22.3040661777,114.1800625352,101.90742376446724,0.0,4.9,239.70322,1732796357000,0.15,5.0,513402819776158
Fix,GPS,22.3040661777,114.1800625352,101.90742376446724,0.0,4.9,239.70322,1732796358000,0.15,5.0,513403830769908
Fix,GPS,22.3040661777,114.1800625352,101.90742376446724,0.0,4.9,239.70322,1732796359000,0.15,5.0,513404833379804
Fix,GPS,22.3040661777,114.1800625352,101.90742376446724,0.0,4.9,239.70322,1732796360000,0.15,5.0,513405823468345
Fix,GPS,22.3040661777,114.1800625352,101.90742376446724,0.0,4.9,239.70322,1732796361000,0.15,5.0,513406828606366
Fix,GPS,22.3040661777,114.1800625352,101.90742376446724,0.0,4.9,239.70322,1732796362000,0.15,5.0,513407837301158
Fix,GPS,22.3040661777,114.1800625352,101.90742376446724,0.0,4.9,239.70322,1732796363000,0.15,5.0,513408833915220
Fix,GPS,22.3040661777,114.1800625352,101.90742376446724,0.0,4.9,239.70322,1732796364000,0.15,5.0,513409831218866
Fix,GPS,22.3040661777,114.1800625352,101.90742376446724,0.0,4.9,239.70322,1732796365000,0.15,5.0,513410822085532
Fix,GPS,22.3040661777,114.1800625352,101.90742376446724,0.0,4.9,239.70322,1732796366000,0.15,5.0,513411818963657
Fix,GPS,22.3040661777,114.1800625352,101.90742376446724,0.0,4.9,239.70322,1732796367000,0.15,5.0,513412832678761
Fix,GPS,22.3040661777,114.1800625352,101.90742376446724,0.0,4.9,239.70322,1732796368000,0.15,5.0,513413835762094
Fix,GPS,22.3040661777,114.1800625352,101.90742376446724,0.0,4.9,239.70322,1732796369000,0.15,5.0,513414837595427
Fix,GPS,22.3040661777,114.1800625352,101.90742376446724,0.0,4.9,239.70322,1732796370000,0.15,5.0,513415828140219
Fix,GPS,22.3040661777,114.1800625352,101.90742376446724,0.0,4.9,239.70322,1732796371000,0.15,5.0,513416837033969
Fix,GPS,22.3040661777,114.1800625352,101.90742376446724,0.0,4.9,239.70322,1732796372000,0.15,5.0,513417831889698
Fix,GPS,22.3040661777,114.1800625352,101.90742376446724,0.0,4.9,239.70322,1732796373000,0.15,5.0,513418837572510
Fix,GPS,22.3040661777,114.1800625352,101.90742376446724,0.0,4.9,239.70322,1732796374000,0.15,5.0,513419834248552
Fix,GPS,22.3040661777,114.1800625352,101.90742376446724,0.0,4.9,239.70322,1732796375000,0.15,5.0,513420827004802
Fix,GPS,22.3040661777,114.1800625352,101.90742376446724,0.0,4.9,239.70322,1732796376000,0.15,5.0,513421833117301
Fix,GPS,22.3040661777,114.1800625352,101.90742376446724,0.0,4.9,239.70322,1732796377000,0.15,5.0,513422831413655
Fix,GPS,22.3040661777,114.1800625352,101.90742376446724,0.0,4.9,239.70322,1732796378000,0.15,5.0,513423833735009
Fix,GPS,22.3040661777,114.1800625352,101.90742376446724,0.0,4.9,239.70322,1732796379000,0.15,5.0,513424823853759
Fix,GPS,22.3040661777,114.1800625352,101.90742376446724,0.0,4.9,239.70322,1732796380000,0.15,5.0,513425829676155
Fix,GPS,22.3040661777,114.1800625352,101.90742376446724,0.0,4.9,239.70322,1732796381000,0.15,5.0,513426823464696
Fix,GPS,22.3040661777,114.1800625352,101.90742376446724,0.0,4.9,239.70322,1732796382000,0.15,5.0,513427820063655
Fix,GPS,22.3040661777,114.1800625352,101.90742376446724,0.0,4.9,239.70322,1732796383000,0.15,5.0,513428827294904
Fix,GPS,22.3040661777,114.1800625352,101.90742376446724,0.0,4.9,239.70322,1732796384000,0.15,5.0,513429831628758
Fix,GPS,22.3040661777,114.1800625352,101.90742376446724,0.0,4.9,239.70322,1732796385000,0.15,5.0,513430819492821
Fix,GPS,22.3040661777,114.1800625352,101.90742376446724,0.0,4.9,239.70322,1732796386000,0.15,5.0,513431818710529
Fix,GPS,22.3040661777,114.1800625352,101.90742376446724,0.0,4.9,239.70322,1732796387000,0.15,5.0,513432820776154
Fix,GPS,22.3040661777,114.1800625352,101.90742376446724,0.0,4.9,239.70322,1732796388000,0.15,5.0,513433827179800
Fix,GPS,22.3040661777,114.1800625352,101.90742376446724,0.0,4.9,239.70322,1732796389000,0.15,5.0,513434834570945
Fix,GPS,22.3040661777,114.1800625352,101.90742376446724,0.0,4.9,239.70322,1732796390000,0.15,5.0,513435833682403
Fix,GPS,22.3040661777,114.1800625352,101.90742376446724,0.0,4.9,239.70322,1732796391000,0.15,5.0,513436832354278
Fix,GPS,22.3040661777,114.1800625352,101.90742376446724,0.0,4.9,239.70322,1732796392000,0.15,5.0,513437828299591
Fix,GPS,22.3040661777,114.1800625352,101.90742376446724,0.0,4.9,239.70322,1732796393000,0.15,5.0,513438834300632
Fix,GPS,22.3040661777,114.1800625352,101.90742376446724,0.0,4.9,239.70322,1732796394000,0.15,5.0,513439830262090
Fix,GPS,22.3040661777,114.1800625352,101.90742376446724,0.0,4.9,239.70322,1732796395000,0.15,5.0,513440835839694
Fix,GPS,22.3040661777,114.1800625352,101.90742376446724,0.0,4.9,239.70322,1732796396000,0.15,5.0,513441836154798
Fix,GPS,22.3040661777,114.1800625352,101.90742376446724,0.0,4.9,239.70322,1732796397000,0.15,5.0,513442836414694
Fix,GPS,22.3040661777,114.1800625352,101.90742376446724,0.0,4.9,239.70322,1732796398000,0.15,5.0,513443819379798
Fix,GPS,22.3040661777,114.1800625352,101.90742376446724,0.0,4.9,239.70322,1732796399000,0.15,5.0,513444836571465
Fix,GPS,22.3040661777,114.1800625352,101.90742376446724,0.0,4.9,239.70322,1732796400000,0.15,5.0,513445838315214
Fix,GPS,22.3040661777,114.1800625352,101.90742376446724,0.0,4.9,239.70322,1732796401000,0.15,5.0,513446836758443
Fix,GPS,22.3040661777,114.1800625352,101.90742376446724,0.0,4.9,239.70322,1732796402000,0.15,5.0,513447835370943
Fix,GPS,22.3040661777,114.1800625352,101.90742376446724,0.0,4.9,239.70322,1732796403000,0.15,5.0,513448839261047
Fix,GPS,22.3040661777,114.1800625352,101.90742376446724,0.0,4.9,239.70322,1732796404000,0.15,5.0,513449834218339
Fix,GPS,22.3040661777,114.1800625352,101.90742376446724,0.0,4.9,239.70322,1732796405000,0.15,5.0,513450834733443
Fix,GPS,22.3040661777,114.1800625352,101.90742376446724,0.0,4.9,239.70322,1732796406000,0.15,5.0,513451832948547
Fix,GPS,22.3040661777,114.1800625352,101.90742376446724,0.0,4.9,239.70322,1732796407000,0.15,5.0,513452838396984
Fix,GPS,22.3040661777,114.1800625352,101.90742376446724,0.0,4.9,239.70322,1732796408000,0.15,5.0,513453834505838
Fix,GPS,22.3040661777,114.1800625352,101.90742376446724,0.0,4.9,239.70322,1732796409000,0.15,5.0,513454836110005
Fix,GPS,22.3040661777,114.1800625352,101.90742376446724,0.0,4.9,239.70322,1732796410000,0.15,5.0,513455836510005
Fix,GPS,22.3040661777,114.1800625352,101.90742376446724,0.0,4.9,239.70322,1732796411000,0.15,5.0,513456835219900
Fix,GPS,22.3040661777,114.1800625352,101.90742376446724,0.0,4.9,239.70322,1732796412000,0.15,5.0,513457833732921
Fix,GPS,22.3040661777,114.1800625352,101.90742376446724,0.0,4.9,239.70322,1732796413000,0.15,5.0,513458834049587
Fix,GPS,22.3040661777,114.1800625352,101.90742376446724,0.0,4.9,239.70322,1732796414000,0.15,5.0,513459833040212
Fix,GPS,22.3040661777,114.1800625352,101.90742376446724,0.0,4.9,239.70322,1732796415000,0.15,5.0,513460832205316
Fix,GPS,22.3040661777,114.1800625352,101.90742376446724,0.0,4.9,239.70322,1732796416000,0.15,5.0,513461835075629
Fix,GPS,22.3040661777,114.1800625352,101.90742376446724,0.0,4.9,239.70322,1732796417000,0.15,5.0,513462831775628
Fix,GPS,22.3040661777,114.1800625352,101.90742376446724,0.0,4.9,239.70322,1732796418000,0.15,5.0,513463829953753
Fix,GPS,22.3040661777,114.1800625352,101.90742376446724,0.0,4.9,239.70322,1732796419000,0.15,5.0,513464830355836
Fix,GPS,22.3040661777,114.1800625352,101.90742376446724,0.0,4.9,239.70322,1732796420000,0.15,5.0,513465817541253
Fix,GPS,22.3040661777,114.1800625352,101.90742376446724,0.0,4.9,239.70322,1732796421000,0.15,5.0,513466816049065
Fix,GPS,22.3040661777,114.1800625352,101.90742376446724,0.0,4.9,239.70322,1732796422000,0.15,5.0,513467824992815
Fix,GPS,22.3040661777,114.1800625352,101.90742376446724,0.0,4.9,239.70322,1732796423000,0.15,5.0,513468821030315
Fix,GPS,22.3040661777,114.1800625352,101.90742376446724,0.0,4.9,239.70322,1732796424000,0.15,5.0,513469828955836
Fix,GPS,22.3040661777,114.1800625352,101.90742376446724,0.0,4.9,239.70322,1732796425000,0.15,5.0,513470814536565
Fix,GPS,22.3040661777,114.1800625352,101.90742376446724,0.0,4.9,239.70322,1732796426000,0.15,5.0,513471826481356
Fix,GPS,22.3040661777,114.1800625352,101.90742376446724,0.0,4.9,239.70322,1732796427000,0.15,5.0,513472827765731
Fix,GPS,22.3040661777,114.1800625352,101.90742376446724,0.0,4.9,239.70322,1732796428000,0.15,5.0,513473831998543
Fix,GPS,22.3040661777,114.1800625352,101.90742376446724,0.0,4.9,239.70322,1732796429000,0.15,5.0,513474828404272
Fix,GPS,22.3040661777,114.1800625352,101.90742376446724,0.0,4.9,239.70322,1732796430000,0.15,5.0,513475825794897
Fix,GPS,22.3040661777,114.1800625352,101.90742376446724,0.0,4.9,239.70322,1732796431000,0.15,5.0,513476828430835
Fix,GPS,22.3040661777,114.1800625352,101.90742376446724,0.0,4.9,239.70322,1732796432000,0.15,5.0,513477830546460
Fix,GPS,22.3040661777,114.1800625352,101.90742376446724,0.0,4.9,239.70322,1732796433000,0.15,5.0,513478823567814
Fix,GPS,22.3040661777,114.1800625352,101.90742376446724,0.0,4.9,239.70322,1732796434000,0.15,5.0,513479835501147
Fix,GPS,22.3040661777,114.1800625352,101.90742376446724,0.0,4.9,239.70322,1732796435000,0.15,5.0,513480832117813
Fix,GPS,22.3040661777,114.1800625352,101.90742376446724,0.0,4.9,239.70322,1732796436000,0.15,5.0,513481831567813
Fix,GPS,22.3040661777,114.1800625352,101.90742376446724,0.0,4.9,239.70322,1732796437000,0.15,5.0,513482834498021
Fix,GPS,22.3040661777,114.1800625352,101.90742376446724,0.0,4.9,239.70322,1732796438000,0.15,5.0,513483830952709
Fix,GPS,22.3040661777,114.1800625352,101.90742376446724,0.0,4.9,239.70322,1732796439000,0.15,5.0,513484828860521
Fix,GPS,22.3040661777,114.1800625352,101.90742376446724,0.0,4.9,239.70322,1732796440000,0.15,5.0,513485831051146
Fix,GPS,22.3040661777,114.1800625352,101.90742376446724,0.0,4.9,239.70322,1732796441000,0.15,5.0,513486817666250
Fix,GPS,22.3040661777,114.1800625352,101.90742376446724,0.0,4.9,239.70322,1732796442000,0.15,5.0,513487831478750
Fix,GPS,22.3040661777,114.1800625352,101.90742376446724,0.0,4.9,239.70322,1732796443000,0.15,5.0,513488834042812
Fix,GPS,22.3040661777,114.1800625352,101.90742376446724,0.0,4.9,239.70322,1732796444000,0.15,5.0,513489831689166
Fix,GPS,22.3040661777,114.1800625352,101.90742376446724,0.0,4.9,239.70322,1732796445000,0.15,5.0,513490839508958
Fix,GPS,22.3040661777,114.1800625352,101.90742376446724,0.0,4.9,239.70322,1732796446000,0.15,5.0,513491836703228
Fix,GPS,22.3040661777,114.1800625352,101.90742376446724,0.0,4.9,239.70322,1732796447000,0.15,5.0,513492833531353
Fix,GPS,22.3040661777,114.1800625352,101.90742376446724,0.0,4.9,239.70322,1732796448000,0.15,5.0,513493839813645
Fix,GPS,22.3040661777,114.1800625352,101.90742376446724,0.0,4.9,239.70322,1732796449000,0.15,5.0,513494842241249
Fix,GPS,22.3040661777,114.1800625352,101.90742376446724,0.0,4.9,239.70322,1732796450000,0.15,5.0,513495840007394
Fix,GPS,22.3040661777,114.1800625352,101.90742376446724,0.0,4.9,239.70322,1732796451000,0.15,5.0,513496827508957
Fix,GPS,22.3040661777,114.1800625352,101.90742376446724,0.0,4.9,239.70322,1732796452000,0.15,5.0,513497836574061
Fix,GPS,22.3040661777,114.1800625352,101.90742376446724,0.0,4.9,239.70322,1732796453000,0.15,5.0,513498840875623
Fix,GPS,22.3040661777,114.1800625352,101.90742376446724,0.0,4.9,239.70322,1732796454000,0.15,5.0,513499837731352
Fix,GPS,22.3040661777,114.1800625352,101.90742376446724,0.0,4.9,239.70322,1732796455000,0.15,5.0,513500836675102
Fix,GPS,22.3040661777,114.1800625352,101.90742376446724,0.0,4.9,239.70322,1732796456000,0.15,5.0,513501823941248
Fix,GPS,22.3040661777,114.1800625352,101.90742376446724,0.0,4.9,239.70322,1732796457000,0.15,5.0,513502833734997
Fix,GPS,22.3040661777,114.1800625352,101.90742376446724,0.0,4.9,239.70322,1732796458000,0.15,5.0,513503836290726
Fix,GPS,22.3040661777,114.1800625352,101.90742376446724,0.0,4.9,239.70322,1732796459000,0.15,5.0,513504837725622
Fix,GPS,22.3040661777,114.1800625352,101.90742376446724,0.0,4.9,239.70322,1732796460000,0.15,5.0,513505820098018
Fix,GPS,22.3040661777,114.1800625352,101.90742376446724,0.0,4.9,239.70322,1732796461000,0.15,5.0,513506832919893
Fix,GPS,22.3040661777,114.1800625352,101.90742376446724,0.0,4.9,239.70322,1732796462000,0.15,5.0,513507834008434
Fix,GPS,22.3040661777,114.1800625352,101.90742376446724,0.0,4.9,239.70322,1732796463000,0.15,5.0,513508835743851
Fix,GPS,22.3040661777,114.1800625352,101.90742376446724,0.0,4.9,239.70322,1732796464000,0.15,5.0,513509833457392
Fix,GPS,22.3040661777,114.1800625352,101.90742376446724,0.0,4.9,239.70322,1732796465000,0.15,5.0,513510835946975
Fix,GPS,22.3040661777,114.1800625352,101.90742376446724,0.0,4.9,239.70322,1732796466000,0.15,5.0,513511829845413
Fix,GPS,22.3040661777,114.1800625352,101.90742376446724,0.0,4.9,239.70322,1732796467000,0.15,5.0,513512832913642
Fix,GPS,22.3040661777,114.1800625352,101.90742376446724,0.0,4.9,239.70322,1732796468000,0.15,5.0,513513831434996
Fix,GPS,22.3040661777,114.1800625352,101.90742376446724,0.0,4.9,239.70322,1732796469000,0.15,5.0,513514835013121
Fix,GPS,22.3040661777,114.1800625352,101.90742376446724,0.0,4.9,239.70322,1732796470000,0.15,5.0,513515820695412
Fix,GPS,22.3040661777,114.1800625352,101.90742376446724,0.0,4.9,239.70322,1732796471000,0.15,5.0,513516829306870
Fix,GPS,22.3040661777,114.1800625352,101.90742376446724,0.0,4.9,239.70322,1732796472000,0.15,5.0,513517827655308
Fix,GPS,22.3040661777,114.1800625352,101.90742376446724,0.0,4.9,239.70322,1732796473000,0.15,5.0,513518836402182
Fix,GPS,22.3040661777,114.1800625352,101.90742376446724,0.0,4.9,239.70322,1732796474000,0.15,5.0,513519830280307
Fix,GPS,22.3040661777,114.1800625352,101.90742376446724,0.0,4.9,239.70322,1732796475000,0.15,5.0,513520819840203
Fix,GPS,22.3040661777,114.1800625352,101.90742376446724,0.0,4.9,239.70322,1732796476000,0.15,5.0,513521830956869
Fix,GPS,22.3040661777,114.1800625352,101.90742376446724,0.0,4.9,239.70322,1732796477000,0.15,5.0,513522831525098
Fix,GPS,22.3040661777,114.1800625352,101.90742376446724,0.0,4.9,239.70322,1732796478000,0.15,5.0,513523831453223
Fix,GPS,22.3040661777,114.1800625352,101.90742376446724,0.0,4.9,239.70322,1732796479000,0.15,5.0,513524821795932
Fix,GPS,22.3040661777,114.1800625352,101.90742376446724,0.0,4.9,239.70322,1732796480000,0.15,5.0,513525834011556
Fix,GPS,22.3040661777,114.1800625352,101.90742376446724,0.0,4.9,239.70322,1732796481000,0.15,5.0,513526825830306
Fix,GPS,22.3040661777,114.1800625352,101.90742376446724,0.0,4.9,239.70322,1732796482000,0.15,5.0,513527832535514
Fix,GPS,22.3040661777,114.1800625352,101.90742376446724,0.0,4.9,239.70322,1732796483000,0.15,5.0,513528837600098
Fix,GPS,22.3040661777,114.1800625352,101.90742376446724,0.0,4.9,239.70322,1732796484000,0.15,5.0,513529826218327
Fix,GPS,22.3040661777,114.1800625352,101.90742376446724,0.0,4.9,239.70322,1732796485000,0.15,5.0,513530832878222
Fix,GPS,22.3040661777,114.1800625352,101.90742376446724,0.0,4.9,239.70322,1732796486000,0.15,5.0,513531830990201
Fix,GPS,22.3040661777,114.1800625352,101.90742376446724,0.0,4.9,239.70322,1732796487000,0.15,5.0,513532835436555
Fix,GPS,22.3040661777,114.1800625352,101.90742376446724,0.0,4.9,239.70322,1732796488000,0.15,5.0,513533825584472
Fix,GPS,22.3040661777,114.1800625352,101.90742376446724,0.0,4.9,239.70322,1732796489000,0.15,5.0,513534823838117
Fix,GPS,22.3040661777,114.1800625352,101.90742376446724,0.0,4.9,239.70322,1732796490000,0.15,5.0,513535832635513
Fix,GPS,22.3040661777,114.1800625352,101.90742376446724,0.0,4.9,239.70322,1732796491000,0.15,5.0,513536819275617
Fix,GPS,22.3040661777,114.1800625352,101.90742376446724,0.0,4.9,239.70322,1732796492000,0.15,5.0,513537838811034
Fix,GPS,22.3040661777,114.1800625352,101.90742376446724,0.0,4.9,239.70322,1732796493000,0.15,5.0,513538839092804
Fix,GPS,22.3040661777,114.1800625352,101.90742376446724,0.0,4.9,239.70322,1732796494000,0.15,5.0,513539832478742
Fix,GPS,22.3040661777,114.1800625352,101.90742376446724,0.0,4.9,239.70322,1732796495000,0.15,5.0,513540832684992
Fix,GPS,22.3040661777,114.1800625352,101.90742376446724,0.0,4.9,239.70322,1732796496000,0.15,5.0,513541826064158
Fix,GPS,22.3040661777,114.1800625352,101.90742376446724,0.0,4.9,239.70322,1732796497000,0.15,5.0,513542828186554
Fix,GPS,22.3040661777,114.1800625352,101.90742376446724,0.0,4.9,239.70322,1732796498000,0.15,5.0,513543820541762
Fix,GPS,22.3040661777,114.1800625352,101.90742376446724,0.0,4.9,239.70322,1732796499000,0.15,5.0,513544822388116
Fix,GPS,22.3040661777,114.1800625352,101.90742376446724,0.0,4.9,239.70322,1732796500000,0.15,5.0,513545823569366
Fix,GPS,22.3040661777,114.1800625352,101.90742376446724,0.0,4.9,239.70322,1732796501000,0.15,5.0,513546813851657
Fix,GPS,22.3040661777,114.1800625352,101.90742376446724,0.0,4.9,239.70322,1732796502000,0.15,5.0,513547822254782
Fix,GPS,22.3040661777,114.1800625352,101.90742376446724,0.0,4.9,239.70322,1732796503000,0.15,5.0,513548820395407
Fix,GPS,22.3040661777,114.1800625352,101.90742376446724,0.0,4.9,239.70322,1732796504000,0.15,5.0,513549817565199
Fix,GPS,22.3040661777,114.1800625352,101.90742376446724,0.0,4.9,239.70322,1732796505000,0.15,5.0,513550818699053
Fix,GPS,22.3040661777,114.1800625352,101.90742376446724,0.0,4.9,239.70322,1732796506000,0.15,5.0,513551822297490
Fix,GPS,22.3040661777,114.1800625352,101.90742376446724,0.0,4.9,239.70322,1732796507000,0.15,5.0,513552828659469
Fix,GPS,22.3040661777,114.1800625352,101.90742376446724,0.0,4.9,239.70322,1732796508000,0.15,5.0,513553829762594
Fix,GPS,22.3040667794,114.1800618627,102.37721249181777,0.25259542,9.269048,239.70322,1732796509000,0.15,5.0,513554833067281
Fix,GPS,22.3040709645,114.1800635127,102.45597451552749,0.34035453,10.085701,239.70322,1732796510000,0.15,5.0,513555818788114
Fix,GPS,22.3040709645,114.1800635127,102.45597451552749,0.0,4.9,239.70322,1732796511000,0.15,5.0,513556824322489
Fix,GPS,22.3040709645,114.1800635127,102.45597451552749,0.0,4.9,239.70322,1732796512000,0.15,5.0,513557824258426
Fix,GPS,22.3040709645,114.1800635127,102.45597451552749,0.0,4.9,239.70322,1732796513000,0.15,5.0,513558827815718
Fix,GPS,22.3040709645,114.1800635127,102.45597451552749,0.0,4.9,239.70322,1732796514000,0.15,5.0,513559831226655
Fix,GPS,22.3040709645,114.1800635127,102.45597451552749,0.0,4.9,239.70322,1732796515000,0.15,5.0,513560825919884
Fix,GPS,22.3040709645,114.1800635127,102.45597451552749,0.0,4.9,239.70322,1732796516000,0.15,5.0,513561826776134
Fix,GPS,22.3040709645,114.1800635127,102.45597451552749,0.0,4.9,239.70322,1732796517000,0.15,5.0,513562824130301
Fix,GPS,22.3040709645,114.1800635127,102.45597451552749,0.0,4.9,239.70322,1732796518000,0.15,5.0,513563826650092
Fix,GPS,22.3040709645,114.1800635127,102.45597451552749,0.0,4.9,239.70322,1732796519000,0.15,5.0,513564826873009
Fix,GPS,22.3040709645,114.1800635127,102.45597451552749,0.0,4.9,239.70322,1732796520000,0.15,5.0,513565827194884
